[{"id":"osm:node/11358527581","name":"Museo archeologico Francesco Savini","lat":42.659247,"lng":13.70152,"kind":"museum","img":"https://commons.wikimedia.org/wiki/Special:FilePath/Teramo_-_Museo_Francesco_Savini.jpg?width=800","desc":"Il Museo archeologico Francesco Savini è allestito in uno storico palazzo della città di Teramo, a pochi passi dalla cattedrale e dalla Biblioteca provinciale Melchiorre Dèlfico.","wiki":"https://it.wikipedia.org/wiki/Museo_archeologico_Francesco_Savini","wd":"https://www.wikidata.org/wiki/Q21552082"},{"id":"osm:node/11542658048","name":"Museo tecnologico di Telespazio","lat":41.976131,"lng":13.598468,"kind":"museum","img":"https://commons.wikimedia.org/wiki/Special:FilePath/Il_museo_tecnologico_di_Telespazio.jpg?width=800","desc":"Il museo tecnologico di Telespazio è un museo situato all'interno del Centro spaziale del Fucino di Telespazio nel comune di Ortucchio (AQ), in Abruzzo.","wiki":"https://it.wikipedia.org/wiki/Museo_tecnologico_di_Telespazio","wd":"https://www.wikidata.org/wiki/Q111379306"},{"id":"osm:node/11898544874","name":"Manoppello Image","lat":42.24982,"lng":14.062373,"kind":"attraction","img":"https://commons.wikimedia.org/wiki/Special:FilePath/Volto_santo_di_manoppello_2019-11-02.jpg?width=800","desc":"Il Volto Santo è una raffigurazione del volto di Gesù  conservata a Manoppello (provincia di Pescara), nella basilica del Volto Santo.","wiki":"https://it.wikipedia.org/wiki/Volto_Santo_di_Manoppello","wd":"https://www.wikidata.org/wiki/Q1760226"},{"id":"osm:node/12156013328","name":"Teatro Comunale di Loreto Liberati","lat":42.197789,"lng":14.35574,"kind":"attraction","wiki":"https://it.wikipedia.org/wiki/Teatro_Di_Loreto-Liberati_Castel_Frentano"},{"id":"osm:node/12260824026","name":"Statua della Madonna in Basilica","lat":41.952603,"lng":14.356312,"kind":"attraction","img":"https://commons.wikimedia.org/wiki/Special:FilePath/Statua_Madonna_3.JPG?width=800","desc":"La statua della Madonna in Basilica o statua lignea della Madonna col Bambino è sita nella chiesa della Madonna in Basilica a Villa Santa Maria, in provincia di Chieti.\nLa statua viene portata in processione dalla chiesa della Madonna in Basilica con una solenne processione il 10 agosto di ogni anno fino in paese ed ivi rimane per circa 2-3 settimane prima della processione di ritorno.","wiki":"https://it.wikipedia.org/wiki/Statua_della_Madonna_in_Basilica","wd":"https://www.wikidata.org/wiki/Q3968663"},{"id":"osm:node/13112347657","name":"Monumento a Silvio Spaventa","lat":42.034993,"lng":14.366496,"kind":"attraction","img":"https://commons.wikimedia.org/wiki/Special:FilePath/Statue_of_Silvio_Spaventa_1.jpg?width=800","desc":"Il monumento a Silvio Spaventa,  sito a Bomba in provincia di Chieti (in piazza Matteotti, ex piazza Municipio), consiste in una statua bronzea del patriota abruzzese realizzata da Adolfo Laurenti a Roma nel 1898.\nAlcuni (Elena Croce) pensano che la statua è leggermente più grande della statura originaria del patriota.","wiki":"https://it.wikipedia.org/wiki/Monumento_a_Silvio_Spaventa","wd":"https://www.wikidata.org/wiki/Q3862628"},{"id":"osm:node/13197501469","name":"Centro museale di documentazione e ricerca scientifica di paleontologia","lat":41.745788,"lng":14.038647,"kind":"museum","img":"https://commons.wikimedia.org/wiki/Special:FilePath/Sala_del_centro_museale_-_Centro_di_Documentazione_Paleontologico_-_Comune_di_Scontrone.jpg?width=800","desc":"Il Centro museale di documentazione e ricerca scientifica di paleontologia, o più comunemente Centro di documentazione paleontologico Hoplitomeryx o Centro paleontologico Hoplitomeryx, è un centro museale situato nel borgo di Scontrone in provincia dell'Aquila, ai margini del Parco nazionale d'Abruzzo, Lazio e Molise. È dedicato alla scoperta e ai ritrovamenti del giacimento fossilifero di Scontrone.","wiki":"https://it.wikipedia.org/wiki/Centro_museale_di_documentazione_e_ricerca_scientifica_di_paleontologia","wd":"https://www.wikidata.org/wiki/Q112705915"},{"id":"osm:node/13427592301","name":"Pinacoteca Cascella","lat":42.355305,"lng":14.40427,"kind":"museum","img":"https://commons.wikimedia.org/wiki/Special:FilePath/IN_VISTA_SUL_MARE.JPG?width=800","desc":"Il Museo civico d'arte contemporanea - Pinacoteca Cascella, nota anche come Pinacoteca Basilio e Michele Cascella o semplicemente Pinacoteca Cascella, è un museo d'arte sito nel Palazzo Farnese ad Ortona, in provincia di Chieti ed è dedicato agli artisti alla memoria di Basilio Cascella e dei figli Michele e Tommaso. All'interno del museo sono esposti varie opere dei Cascella, tra cui tele, sculture in ceramica provenienti dal paese d'origine della famiglia il comune Rapino, e progetti, come le geometrie che sono state realizzate in pietra marina presso il corso Vittorio Emanuele di Ortona, progetto di Tommaso Cascella.","wiki":"https://it.wikipedia.org/wiki/Museo_civico_d'arte_contemporanea_-_Pinacoteca_Cascella"},{"id":"osm:node/1802475786","name":"Elettra","lat":41.97621,"lng":13.597999,"kind":"attraction","img":"https://it.wikipedia.org/wiki/Special:FilePath/Elettra_a_Porto_Santo_Stefano.jpg?width=800","desc":"Elettra fu la nave-laboratorio su cui Guglielmo Marconi effettuò numerosi dei suoi esperimenti di radiofonia tra le due guerre mondiali.","wiki":"https://it.wikipedia.org/wiki/Elettra_(nave_1904)","wd":"https://www.wikidata.org/wiki/Q3721906"},{"id":"osm:node/1942551035","name":"Museo dell'Abruzzo Bizantino ed Altomedievale","lat":42.296714,"lng":14.326586,"kind":"museum","img":"https://commons.wikimedia.org/wiki/Special:FilePath/Il_Castello_Ducale_di_Crecchio.jpg?width=800","desc":"Il Museo dell'Abruzzo Bizantino ed Altomedievale si trova a Crecchio in provincia di Chieti.","wiki":"https://it.wikipedia.org/wiki/Museo_dell'Abruzzo_bizantino_e_altomedievale","wd":"https://www.wikidata.org/wiki/Q3867989"},{"id":"osm:node/2167330060","name":"Battaglia di Tagliacozzo","lat":42.072021,"lng":13.360914,"kind":"attraction","img":"https://commons.wikimedia.org/wiki/Special:FilePath/Battaglia_di_Tagliacozzo_%281268%29.jpg?width=800","desc":"La battaglia di Tagliacozzo fu una battaglia combattuta nei piani Palentini il 23 agosto 1268 tra i ghibellini sostenitori di Corradino di Svevia e le truppe angioine di Carlo I d'Angiò, di parte guelfa, rappresentando di fatto l'ultimo atto della potenza sveva in Italia. La fine di Corradino segnò infatti la caduta definitiva degli Hohenstaufen dal trono imperiale e da quello di Sicilia, aprendo, nel regno siciliano, il nuovo capitolo della dominazione angioina.","wiki":"https://it.wikipedia.org/wiki/Battaglia_di_Tagliacozzo","wd":"https://www.wikidata.org/wiki/Q1894062"},{"id":"osm:node/2427292466","name":"Borgo Faraone","lat":42.80484,"lng":13.681145,"kind":"heritage","img":"https://commons.wikimedia.org/wiki/Special:FilePath/Faraone_di_Sant%27Egidio_alla_Vibrata_%28TE%29_015.jpg?width=800","desc":"Faraone, noto anche con le denominazioni di Faraone Vecchio e Faraone Antico, è una frazione del comune di Sant'Egidio alla Vibrata in provincia di Teramo nella regione Abruzzo.\nFu possedimento di varie nobili famiglie, ma la più importante e ricca fu quella dei baroni Ranalli che governarono il territorio fino al 1950, anno del terremoto.","wiki":"https://it.wikipedia.org/wiki/Faraone_(Sant'Egidio_alla_Vibrata)","wd":"https://www.wikidata.org/wiki/Q17280261"},{"id":"osm:node/2526335362","name":"Grotte di Stiffe","lat":42.254354,"lng":13.541289,"kind":"attraction","img":"https://commons.wikimedia.org/wiki/Special:FilePath/Grotte_di_Stiffe_2015_by-RaBoe_02.jpg?width=800","desc":"Le grotte di Stiffe sono un complesso di grotte carsiche situate nei pressi di Stiffe, nel territorio del comune di San Demetrio ne' Vestini (AQ), in Abruzzo, ricomprese all'interno del parco naturale regionale Sirente-Velino. Testimonianza di una risorgenza attiva unica in Italia, rese accessibili al pubblico dal 1991, costituiscono oggi uno dei principali siti naturalistici dell'aquilano.","wiki":"https://it.wikipedia.org/wiki/Grotte_di_Stiffe","wd":"https://www.wikidata.org/wiki/Q16562077"},{"id":"osm:node/2831985516","name":"Piani di Pezza","lat":42.184245,"lng":13.450905,"kind":"park","img":"https://commons.wikimedia.org/wiki/Special:FilePath/Piani_di_Pezza.jpg?width=800","desc":"I Piani di Pezza sono un altopiano glaciale e carsico-alluvionale situato nell'Appennino abruzzese,  in provincia dell'Aquila, all'interno del territorio del comune di Rocca di Mezzo (e in parte anche nel comune di Ovindoli), incastonati nel Parco Naturale Regionale Sirente-Velino. Dalle montagne circostanti si gode un ampio panorama delle più alte vette dell'appennino.","wiki":"https://it.wikipedia.org/wiki/Piani_di_Pezza","wd":"https://www.wikidata.org/wiki/Q3901959"},{"id":"osm:node/308179759","name":"Fonte del Borgo","lat":42.228253,"lng":14.391474,"kind":"monument","img":"https://commons.wikimedia.org/wiki/Special:FilePath/Fontana_del_Borgo%2C_Lanciano_3.JPG?width=800","desc":"La fonte del Borgo o fontana del Borgo si trova nell'omonimo quartiere di Lanciano, in provincia di Chieti, piazza Francesco Paolo Memmo, detta \"della Pietrosa\". È iscritta all'elenco dei monumenti nazionali.","wiki":"https://it.wikipedia.org/wiki/Fonte_del_Borgo","wd":"https://www.wikidata.org/wiki/Q3747493"},{"id":"osm:node/3376787780","name":"Porta Barete","lat":42.355823,"lng":13.389178,"kind":"castle","img":"https://commons.wikimedia.org/wiki/Special:FilePath/Porta_Barete.jpg?width=800","desc":"Porta Barete, precedentemente nota come Porta di Lavareto, è una porta della cinta muraria dell'Aquila.\nÈ la porta di riferimento del quarto di San Pietro, posta in via E. Vicentini, anticamente allo sbocco di via Roma su viale Corrado IV, nonché uno dei due accessi alla città – insieme a Porta Bazzano – ad essere dotato di doppia fortificazione.","wiki":"https://it.wikipedia.org/wiki/Porta_Barete","wd":"https://www.wikidata.org/wiki/Q62104665"},{"id":"osm:node/4260135990","name":"Battle of Ortona 1943 Museum","lat":42.353112,"lng":14.403659,"kind":"museum","img":"https://commons.wikimedia.org/wiki/Special:FilePath/Museo_della_Battaglia_di_Ortona.png?width=800","desc":"Il Museo della battaglia di Ortona o semplicemente MUBA è sito nell'ex-convento di Sant'Anna in Via Garibaldi ad Ortona, in provincia di Chieti ed è dedicato alla omonima battaglia della seconda guerra mondiale.","wiki":"https://it.wikipedia.org/wiki/Museo_della_battaglia_di_Ortona","wd":"https://www.wikidata.org/wiki/Q3868057"},{"id":"osm:node/4425522437","name":"Museo civico di Sulmona","lat":42.049295,"lng":13.92298,"kind":"museum","img":"https://commons.wikimedia.org/wiki/Special:FilePath/Sulmona_17.jpg?width=800","desc":"Il museo civico di Sulmona è il maggiore museo artistico-archeologico della Valle Peligna.\nLe sale sono ospitate nei 10 locali del Complesso della Santissima Annunziata.","wiki":"https://it.wikipedia.org/wiki/Museo_civico_di_Sulmona","wd":"https://www.wikidata.org/wiki/Q3867818"},{"id":"osm:node/4492885552","name":"Torre di Punta Penna","lat":42.173508,"lng":14.714903,"kind":"tower","img":"https://commons.wikimedia.org/wiki/Special:FilePath/Vasto_2010-by-RaBoe-30.jpg?width=800","desc":"La torre di Punta Penna si trova sull'omonimo promontorio, ed è una struttura a pianta quadrata.","wiki":"https://it.wikipedia.org/wiki/Torre_di_Punta_Penna","wd":"https://www.wikidata.org/wiki/Q16617019"},{"id":"osm:node/4699907209","name":"Acquedotto romano di Alba Fucens","lat":42.092259,"lng":13.424687,"kind":"heritage","img":"https://commons.wikimedia.org/wiki/Special:FilePath/Ancient_Roman_aqueduct_%28Alba_Fucens%29.jpg?width=800","desc":"L'acquedotto romano di Alba Fucens è un acquedotto di epoca romana risalente al I secolo a.C., nel periodo tardo-repubblicano, che portava l'acqua dalla sorgente di Santa Jona alla città antica di Alba Fucens, sito archeologico del contemporaneo comune di Massa d'Albe (AQ), in Abruzzo.","wiki":"https://it.wikipedia.org/wiki/Acquedotto_romano_di_Alba_Fucens","wd":"https://www.wikidata.org/wiki/Q118558965"},{"id":"osm:node/4834666101","name":"Fonte della Noce","lat":42.659199,"lng":13.709698,"kind":"attraction","img":"https://commons.wikimedia.org/wiki/Special:FilePath/Fonte_della_Noce_-_Teramo_025.jpg?width=800","desc":"Fonte della Noce è una fontana storica della città di Teramo in Abruzzo. \nIl sito che l'accoglie si trova in via Fonte della Noce, all'interno dell'area naturale del Parco fluviale del Vezzola a pochi passi dal centro cittadino.","wiki":"https://it.wikipedia.org/wiki/Fonte_della_Noce","wd":"https://www.wikidata.org/wiki/Q24941470"},{"id":"osm:node/5543784729","name":"Museo casa natale di Gabriele d'Annunzio","lat":42.461152,"lng":14.211932,"kind":"museum","img":"https://commons.wikimedia.org/wiki/Special:FilePath/Pescara_2007_-Casa_natale_di_Gabriele_D%27Annunzio-_by-RaBoe_02.jpg?width=800","desc":"Il Museo casa natale di Gabriele d'Annunzio si trova in corso Manthoné 116 a Pescara, ed è stato dichiarato monumento nazionale nel 1927.\nDal dicembre 2014 il Ministero per i beni e le attività culturali la gestisce tramite il Polo museale dell'Abruzzo, nel dicembre 2019 divenuto Direzione regionale Musei.","wiki":"https://it.wikipedia.org/wiki/Museo_casa_natale_Gabriele_D'Annunzio","wd":"https://www.wikidata.org/wiki/Q3867751"},{"id":"osm:node/5639815082","name":"Scala santa","lat":42.72627,"lng":13.68708,"kind":"attraction","img":"https://commons.wikimedia.org/wiki/Special:FilePath/Scala_Santa_di_Campli_%28TE%29_-_gradini_ascensione.jpg?width=800","desc":"La Scala Santa di Campli è un edificio di culto cattolico, costruito nella seconda metà del XVIII secolo, nell'omonima cittadina abruzzese. La fabbrica si eleva addossata a un fianco longitudinale della Chiesa di San Paolo, all'interno del tessuto urbano del paese, in provincia di Teramo, nel territorio compreso tra le valli dei torrenti Fiumicino e Siccagno.","wiki":"https://it.wikipedia.org/wiki/Scala_Santa_(Campli)","wd":"https://www.wikidata.org/wiki/Q16600781"},{"id":"osm:node/5643853954","name":"Museo del costume e della tradizione della nostra gente","lat":42.191467,"lng":14.220297,"kind":"museum","img":"https://commons.wikimedia.org/wiki/Special:FilePath/Guardiagrele_San_Francesco_Portici.jpg?width=800","desc":"Il Museo del costume e delle tradizioni, nasce da uno studio storico negli anni 80 coordinato da un gruppo di appassionati ma condotto dai ragazzi della scuola superiore del paese, il museo si trova al piano terra del antico convento costruito tra '800 e '900. Il 2 agosto dal 2014 il museo dei costumi e delle tradizioni riapre le sue porte dopo una accurata restaurazione finanziata con i progetti integrati territoriali (PIT) dell'unione europea.","wiki":"https://it.wikipedia.org/wiki/Museo_del_costume_e_della_tradizione_della_nostra_gente","wd":"https://www.wikidata.org/wiki/Q3867946"},{"id":"osm:node/6709828169","name":"Torre e Palazzo De Felice","lat":42.32108,"lng":14.043525,"kind":"castle","img":"https://commons.wikimedia.org/wiki/Special:FilePath/Rosciano_%28PE%29_-_Palazzo_De_Felice_07.jpg?width=800","desc":"Il Palazzo De Felice si trova sulla sponda nord del fiume Pescara al centro di Rosciano, in provincia di Pescara.","wiki":"https://it.wikipedia.org/wiki/Palazzo_De_Felice","wd":"https://www.wikidata.org/wiki/Q24724686"},{"id":"osm:node/6780953542","name":"Teatro Stabile d'Abruzzo","lat":42.350903,"lng":13.399932,"kind":"attraction","desc":"Il Teatro Stabile d'Abruzzo, meglio noto con l'acronimo TSA, è un ente teatrale stabile con sede all'Aquila.\nFondato il 28 ottobre 1963 come Teatro Stabile dell'Aquila — poi, dal 1991, Teatro Stabile Abruzzese — si è costituito ufficialmente nel 2000 con la denominazione.","wiki":"https://it.wikipedia.org/wiki/Teatro_Stabile_d'Abruzzo","wd":"https://www.wikidata.org/wiki/Q3982169"},{"id":"osm:node/6813208256","name":"Museo archeologico di Santa Maria dei Raccomandati (closed)","lat":42.351532,"lng":13.400169,"kind":"museum","img":"https://commons.wikimedia.org/wiki/Special:FilePath/L%27Aquila_-_Santa_Maria_dei_Raccomandati_01.jpg?width=800","desc":"Il Museo archeologico di Santa Maria dei Raccomandati è un museo con sede all'Aquila, non ancora ufficialmente aperto. Ha sede nell'ex convento omonimo che dà sul corso del capoluogo abruzzese e ospita un'importante collezione archeologica della regione.","wiki":"https://it.wikipedia.org/wiki/Museo_archeologico_di_Santa_Maria_dei_Raccomandati","wd":"https://www.wikidata.org/wiki/Q3867691"},{"id":"osm:node/6913884158","name":"Aufinum","lat":42.28173,"lng":13.771889,"kind":"heritage","img":"https://commons.wikimedia.org/wiki/Special:FilePath/Aufinum_-_Area_Archeologica_di_Capestrano_08.jpg?width=800","desc":"Aufīnum è stata una città dei Vestini, localizzata nei pressi  di Capestrano, territorio nel quale è stato rinvenuto il Guerriero di Capestrano.","wiki":"https://it.wikipedia.org/wiki/Aufinum","wd":"https://www.wikidata.org/wiki/Q4820323"},{"id":"osm:node/7126401223","name":"Museo delle Genti d'Abruzzo","lat":42.462034,"lng":14.213127,"kind":"museum","img":"https://commons.wikimedia.org/wiki/Special:FilePath/Pescara_-Centro_Storico_Museo_delle_Genti_d%27Abruzzo-_2005_by-RaBoe_001.jpg?width=800","desc":"Il Museo delle genti d'Abruzzo è un museo di Pescara.","wiki":"https://it.wikipedia.org/wiki/Museo_delle_genti_d'Abruzzo","wd":"https://www.wikidata.org/wiki/Q3868143"},{"id":"osm:node/7922537821","name":"Museo del duomo di Guardiagrele \"don Domenico Grossi\"","lat":42.190649,"lng":14.221816,"kind":"museum","img":"https://commons.wikimedia.org/wiki/Special:FilePath/Museo_del_duomo_di_guardiagrele%2C_01.jpg?width=800","desc":"Il museo del duomo di Guardiagrele \"don Domenico Grossi\" si trova nell'omonimo comune abruzzese della provincia di Chieti.","wiki":"https://it.wikipedia.org/wiki/Museo_del_duomo_di_Guardiagrele","wd":"https://www.wikidata.org/wiki/Q3867910"},{"id":"osm:node/8093368489","name":"Museo dell'arte e della tecnologia confettiera","lat":42.038467,"lng":13.922225,"kind":"museum","img":"https://commons.wikimedia.org/wiki/Special:FilePath/Sulmona_-Museo_dell%27arte_e_della_tecnologia_confettiera-_2007_by-RaBoe001_.jpg?width=800","desc":"Il Museo dell'Arte e della Tecnologia Confettiera di Sulmona si trova in via Stazione Introdacqua 55, all'interno dello stabilimento confettiero Pelino. È noto comunemente anche come Museo dei confetti.","wiki":"https://it.wikipedia.org/wiki/Museo_dell'arte_e_della_tecnologia_confettiera","wd":"https://www.wikidata.org/wiki/Q3868014"},{"id":"osm:node/8358262754","name":"Nel 50 Anniversario Della Liberazione","lat":42.341577,"lng":14.315466,"kind":"monument","img":"https://commons.wikimedia.org/wiki/Special:FilePath/Gessopalena_1.jpg?width=800","desc":"La battaglia del Sangro fu un conflitto armato che vide contrapporsi l’VIII Armata inglese a sud e l’esercito tedesco in ritirata a nord del fiume, nel corso della seconda guerra mondiale. \nIn realtà il termine \"del Sangro\" sarebbe improprio, in quanto questa guerra è composta da una serie di micro-battaglie, ed alcune più importanti, combattute in vari luoghi della provincia di Chieti, e dell'Aquila, partendo dalla foce del Sangro a Fossacesia (CH), e risalendo sino a Roccaraso e Castel di Sangro (AQ), tra i britannici ed i tedeschi occupanti.","wiki":"https://it.wikipedia.org/wiki/Battaglia_del_Sangro"},{"id":"osm:relation/10119271","name":"Amphisculpture","lat":42.34184,"lng":13.402086,"kind":"attraction","img":"https://commons.wikimedia.org/wiki/Special:FilePath/Amphisculpture.jpg?width=800","desc":"L'Amphisculpture, o Anfiscultura, è un teatro–monumento all'aperto situato nel parco del Sole all'Aquila.","wiki":"https://it.wikipedia.org/wiki/Amphisculpture","wd":"https://www.wikidata.org/wiki/Q56323372"},{"id":"osm:relation/10623641","name":"Teatro romano di Amiternum","lat":42.403835,"lng":13.309895,"kind":"heritage","img":"https://commons.wikimedia.org/wiki/Special:FilePath/Teatro_romano_di_Amiternum_%28dettaglio%29.jpg?width=800","desc":"Il teatro romano di Amiternum era il principale teatro dell'antica città sabina di Amiternum, i cui resti archeologici sono situati nei pressi dell'abitato di San Vittorino nel territorio comunale dell'Aquila.\nLa struttura si fa risalire all'età augustea, come si evince dai rivestimenti delle murature realizzati con la tecnica edilizia dell'opera reticolata, ancora oggi ben visibile.","wiki":"https://it.wikipedia.org/wiki/Teatro_romano_di_Amiternum","wd":"https://www.wikidata.org/wiki/Q3982363"},{"id":"osm:relation/11044324","name":"Palazzo Santucci","lat":42.238609,"lng":13.728636,"kind":"castle","img":"https://commons.wikimedia.org/wiki/Special:FilePath/Navelli_%28AQ%29_-_Palazzo_Santucci_01.JPG?width=800","desc":"Il palazzo fortificato Santucci, noto anche come Palazzo Baronale, si trova nel comune italiano di Navelli, in provincia dell'Aquila.","wiki":"https://it.wikipedia.org/wiki/Palazzo_Santucci","wd":"https://www.wikidata.org/wiki/Q23826311"},{"id":"osm:relation/11653750","name":"Palazzo Grilli","lat":42.357815,"lng":14.405004,"kind":"attraction","img":"https://commons.wikimedia.org/wiki/Special:FilePath/Palazzo_Farnese_Ortona.jpg?width=800","desc":"Questa pagina tratta l'architettura civile di Ortona in provincia di Chieti.","wiki":"https://it.wikipedia.org/wiki/Palazzi_di_Ortona%23Palazzo_Grilli"},{"id":"osm:relation/11680061","name":"Taverna ducale","lat":42.17429,"lng":13.832797,"kind":"museum","img":"https://commons.wikimedia.org/wiki/Special:FilePath/Popoli_-Taverna_Ducale-_2007_by-RaBoe_05.jpg?width=800","desc":"La Taverna ducale di Popoli Terme è un museo ospitato in un palazzetto del XIV secolo appartenuto alla famiglia Cantelmo.\nDal dicembre 2014 il Ministero per i beni e le attività culturali la gestisce tramite il Polo museale dell'Abruzzo, nel dicembre 2019 divenuto Direzione regionale Musei.","wiki":"https://it.wikipedia.org/wiki/Taverna_ducale_(Popoli)","wd":"https://www.wikidata.org/wiki/Q24814666"},{"id":"osm:relation/12122906","name":"Lago Sinizzo","lat":42.290869,"lng":13.576529,"kind":"attraction","img":"https://commons.wikimedia.org/wiki/Special:FilePath/Lago_Sinizzo_da_drone.jpg?width=800","desc":"Il lago Sinizzo è un piccolo lago, sito in Abruzzo, in provincia dell'Aquila, all'interno del territorio del comune di San Demetrio ne' Vestini, poco fuori dall'abitato del paese. Assieme ai Laghi di Bagno e al Lago Vetoio, rappresenta il maggior specchio d'acqua della Valle dell'Aterno.","wiki":"https://it.wikipedia.org/wiki/Lago_Sinizzo","wd":"https://www.wikidata.org/wiki/Q16570961"},{"id":"osm:relation/12343796","name":"Museo civico archeologico Antonio De Nino","lat":42.124548,"lng":13.844052,"kind":"museum","desc":"Il Museo civico archeologico Antonio De Nino è un museo archeologico situato a Corfinio, in provincia dell'Aquila.","wiki":"https://it.wikipedia.org/wiki/Museo_civico_archeologico_Antonio_De_Nino","wd":"https://www.wikidata.org/wiki/Q21552081"},{"id":"osm:relation/12562201","name":"Parco Lavino","lat":42.245438,"lng":14.018346,"kind":"park","img":"https://commons.wikimedia.org/wiki/Special:FilePath/Parco_del_Lavino.jpg?width=800","desc":"Il parco territoriale attrezzato Sorgenti solfuree del Lavino è un'area naturale protetta di 37,8 ha, istituito nel 1987 e situato nel comune di Scafa, in provincia di Pescara.","wiki":"https://it.wikipedia.org/wiki/Parco_territoriale_attrezzato_Sorgenti_solfuree_del_Lavino","wd":"https://www.wikidata.org/wiki/Q3895765"},{"id":"osm:relation/12900287","name":"Rocca Orsini","lat":42.066814,"lng":13.341235,"kind":"castle","img":"https://commons.wikimedia.org/wiki/Special:FilePath/Scurcola_Marsicana_AQ_-_Rocca_Orsini_01.JPG?width=800","desc":"La rocca Orsini è un castello situato a Scurcola Marsicana (AQ), in Abruzzo.","wiki":"https://it.wikipedia.org/wiki/Rocca_Orsini","wd":"https://www.wikidata.org/wiki/Q18575855"},{"id":"osm:relation/13888340","name":"Eremo di San Bartolomeo in Legio","lat":42.181742,"lng":14.03895,"kind":"church","img":"https://commons.wikimedia.org/wiki/Special:FilePath/Roccamorice_-_Eremo_di_San_Bartolomeo_in_Legio_03.jpg?width=800","desc":"L'eremo di San Bartolomeo in Legio si trova su di uno sperone roccioso di circa 50 metri a 700 m s.l.m. nella Majella, nel comune di Roccamorice, a poca distanza dall'eremo di Santo Spirito a Majella.","wiki":"https://it.wikipedia.org/wiki/Eremo_di_San_Bartolomeo_in_Legio","wd":"https://www.wikidata.org/wiki/Q3731333"},{"id":"osm:relation/14145154","name":"Convento Michetti","lat":42.415644,"lng":14.293602,"kind":"attraction","img":"https://commons.wikimedia.org/wiki/Special:FilePath/Francavilla_al_Mare_12_%28RaBoe%29.jpg?width=800","desc":"Il convento Michetti, noto anche come Cenacolo michettiano o Cenacolo dannunziano era in origine un convento di Francavilla al Mare appartenente all'ordine francescano (attualmente è dedicato a Sant'Antonio di Padova), passato successivamente al demanio comunale e, negli anni ottanta dell'Ottocento, a Francesco Paolo Michetti che lo trasformò in un centro di riunione e di scambi culturali, una sorta di cenacolo in cui letterati, artisti e intellettuali condivisero esperienze di vita e di pensiero. Il prestigio di alcune personalità ospiti del convento, fra cui Gabriele D'Annunzio, Vittorio Pepe, Costantino Barbella, Francesco Paolo Tosti, Edoardo Scarfoglio, Matilde Serao, Basilio Cascella, Wilhelm von Gloeden, Arnaldo Ferraguti e dello stesso Michetti, assicurò al luogo una notorietà che andò ben oltre i ristretti limiti territoriali della regione di appartenenza.","wiki":"https://it.wikipedia.org/wiki/Convento_Michetti","wd":"https://www.wikidata.org/wiki/Q3689425"},{"id":"osm:relation/16493392","name":"Ponte Ennio Flaiano","lat":42.461652,"lng":14.208165,"kind":"attraction","img":"https://commons.wikimedia.org/wiki/Special:FilePath/Pescara_-Ponte_Flaiano-_2017_by-RaBoe_060.jpg?width=800","desc":"Il ponte Ennio Flaiano è un ponte per il transito ciclo-pedonale e veicolare su ruote situato nella città di Pescara che attraversa le due sponde del fiume Pescara collegando via Gran Sasso con il complesso delle Torri Camuzzi e lo svincolo \"Pescara Portanuova\" della SS16 dir/C.","wiki":"https://it.wikipedia.org/wiki/Ponte_Flaiano","wd":"https://www.wikidata.org/wiki/Q30889842"},{"id":"osm:relation/19002136","name":"Convento di Santa Maria del Paradiso","lat":42.203429,"lng":13.907889,"kind":"attraction","img":"https://commons.wikimedia.org/wiki/Special:FilePath/Convento_di_Santa_Maria_del_Paradiso_-_Facciata_anteriore.jpg?width=800","desc":"Il Convento di Santa Maria del Paradiso, conosciuto anche come Convento dell'Osservanza, è un convento (con annessa chiesa) di Tocco da Casauria ubicato in Via Osservanza.","wiki":"https://it.wikipedia.org/wiki/Convento_di_Santa_Maria_del_Paradiso","wd":"https://www.wikidata.org/wiki/Q113535712"},{"id":"osm:relation/2099976","name":"Palazzo de' Mayo","lat":42.348753,"lng":14.166649,"kind":"attraction","img":"https://commons.wikimedia.org/wiki/Special:FilePath/Palazzo_De%27_Mayo_and_Corso_Marrucino%2C_Chieti.jpg?width=800","desc":"Il palazzo de' Mayo è un edificio civile di Chieti, situato sul Corso Marrucino","wiki":"https://it.wikipedia.org/wiki/Palazzo_de'_Mayo","wd":"https://www.wikidata.org/wiki/Q65129875"},{"id":"osm:relation/6027781","name":"Oratorio di Santa Maria delle Grazie","lat":42.285445,"lng":13.957824,"kind":"church","img":"https://commons.wikimedia.org/wiki/Special:FilePath/Alanno_%28PE%29_-_Oratorio_di_Santa_Maria_delle_Grazie_01.jpg?width=800","desc":"L'oratorio di Santa Maria delle Grazie si trova nel comune di Alanno, in provincia di Pescara e arcidiocesi di Pescara-Penne; è sussidiario della parrocchiale dell'Assunzione della Beata Vergine Maria e fa parte della forania di Torre de' Passeri.","wiki":"https://it.wikipedia.org/wiki/Oratorio_di_Santa_Maria_delle_Grazie_(Alanno)","wd":"https://www.wikidata.org/wiki/Q46631423"},{"id":"osm:relation/8443311","name":"Mura dell'Aquila","lat":42.349099,"lng":13.394925,"kind":"attraction","img":"https://commons.wikimedia.org/wiki/Special:FilePath/Mura_dell%27Aquila_01.JPG?width=800","desc":"Le mura dell'Aquila costituiscono l'antica cerchia della città e rappresentano il confine del suo centro storico.\nEdificate a partire dal XIII secolo, ed in buona parte conservate ancora oggi, mantengono pressappoco la forma originale nonostante le numerose modifiche dovute a crolli (causati dai frequenti terremoti) e sventramenti di carattere urbanistico.","wiki":"https://it.wikipedia.org/wiki/Mura_dell'Aquila","wd":"https://www.wikidata.org/wiki/Q3867241"},{"id":"osm:relation/8484","name":"Riserva Naturale Pineta Dannunziana","lat":42.4532,"lng":14.236818,"kind":"park","img":"https://commons.wikimedia.org/wiki/Special:FilePath/Pescara_2005_-la_pineta_dannunziana-_by_Raboe_001.jpg?width=800","desc":"La riserva naturale di interesse provinciale pineta Dannunziana, anche conosciuta come la Pineta Dannunziana è un'area naturale protetta situata nella zona meridionale del comune di Pescara. Per i pescaresi, la riserva è nota anche come \"Pineta D'Avalos\" o \"Parco D'Avalos\", che è il nome della famiglia che, al tempo dei Borbone, possedeva il marchesato di Pescara.","wiki":"https://it.wikipedia.org/wiki/Riserva_naturale_di_interesse_provinciale_Pineta_Dannunziana","wd":"https://www.wikidata.org/wiki/Q3936793"},{"id":"osm:relation/8537693","name":"Parco del Castello","lat":42.353851,"lng":13.404229,"kind":"park","desc":"Parco del Castello (L'Aquila)","wiki":"https://it.wikipedia.org/wiki/Parco_del_Castello","wd":"https://www.wikidata.org/wiki/Q65070131"},{"id":"osm:relation/8538157","name":"Villa Comunale","lat":42.345051,"lng":13.397897,"kind":"park","img":"https://commons.wikimedia.org/wiki/Special:FilePath/Vista_panoramica_dell%27Aquila_%28centro_storico%29.jpg?width=800","desc":"La Villa comunale è uno dei principali giardini storici dell'Aquila.","wiki":"https://it.wikipedia.org/wiki/Villa_comunale_dell'Aquila","wd":"https://www.wikidata.org/wiki/Q55832295"},{"id":"osm:relation/8858804","name":"Basilica di Santa Maria di Collemaggio","lat":42.342751,"lng":13.404796,"kind":"church","img":"https://commons.wikimedia.org/wiki/Special:FilePath/Facciata_della_Basilica_di_Santa_Maria_di_Collemaggio.jpg?width=800","desc":"La basilica di Santa Maria di Collemaggio è un edificio religioso dell'Aquila, sito appena fuori dalla cinta muraria, sull'omonimo colle.\nFondata nel 1288 per volere di Pietro da Morrone — qui incoronato papa con il nome di Celestino V il 29 agosto 1294 — è considerata la massima espressione dell'architettura abruzzese, oltre che il simbolo della città ed è stata dichiarata monumento nazionale nel 1902.","wiki":"https://it.wikipedia.org/wiki/Basilica_di_Santa_Maria_di_Collemaggio","wd":"https://www.wikidata.org/wiki/Q2034923"},{"id":"osm:relation/9400054","name":"Fontana del Nettuno","lat":42.352757,"lng":13.401194,"kind":"attraction","img":"https://commons.wikimedia.org/wiki/Special:FilePath/Fontana_del_Nettuno_%28L%27Aquila%29.jpg?width=800","desc":"La fontana del Nettuno è una fontana dell'Aquila.","wiki":"https://it.wikipedia.org/wiki/Fontana_del_Nettuno_(L'Aquila)","wd":"https://www.wikidata.org/wiki/Q3747359"},{"id":"osm:relation/9407878","name":"Basilica of San Bernardino","lat":42.350615,"lng":13.402417,"kind":"church","img":"https://commons.wikimedia.org/wiki/Special:FilePath/Basilica_di_San_Bernardino_%28facciata%29.jpg?width=800","desc":"La basilica di San Bernardino è un edificio religioso dell'Aquila, situato nel quarto di Santa Maria. Venne costruita, con l'adiacente convento, fra il 1454 e il 1472 in onore di san Bernardino da Siena, le cui spoglie sono custodite all'interno del mausoleo del Santo realizzato a opera di Silvestro dell'Aquila.","wiki":"https://it.wikipedia.org/wiki/Basilica_di_San_Bernardino","wd":"https://www.wikidata.org/wiki/Q2886989"},{"id":"osm:relation/9583512","name":"Piazza Regina Margherita","lat":42.352803,"lng":13.401041,"kind":"attraction","img":"https://commons.wikimedia.org/wiki/Special:FilePath/Fontana_del_Nettuno_%28L%27Aquila%29.jpg?width=800","desc":"Piazza Regina Margherita è una piazza dell'Aquila. Situata lungo corso Vittorio Emanuele, nel quarto di Santa Maria, è caratterizzata dalla presenza della fontana del Nettuno.","wiki":"https://it.wikipedia.org/wiki/Piazza_Regina_Margherita","wd":"https://www.wikidata.org/wiki/Q70451435"},{"id":"osm:relation/9617802","name":"Torre civica","lat":42.35101,"lng":13.398175,"kind":"attraction","img":"https://commons.wikimedia.org/wiki/Special:FilePath/Particolare_Torre_del_Palazzo_Civico_AQ.JPG?width=800","desc":"La torre civica, o torre del Municipio, è un edificio storico dell'Aquila, unico elemento superstite del trecentesco Palazzo del Capitano e oggi parte di Palazzo Margherita, sede del municipio cittadino. Nel 1902 è stata inserita nell'elenco dei monumenti nazionali italiani.","wiki":"https://it.wikipedia.org/wiki/Torre_civica_(L'Aquila)","wd":"https://www.wikidata.org/wiki/Q3995320"},{"id":"osm:relation/9710969","name":"Fontana delle 99 Canelle","lat":42.349573,"lng":13.389604,"kind":"attraction","img":"https://commons.wikimedia.org/wiki/Special:FilePath/L%27aquila%2C_fontana_delle_99_cannelle%2C_02.jpg?width=800","desc":"La fontana delle 99 cannelle (detta anche fontana della Rivera) è una fontana monumentale dell'Aquila, inserita nel 1902 nell'elenco dei monumenti nazionali italiani.\nSituata a Borgo Rivera, una delle zone più antiche del centro storico a ridosso del fiume Aterno, vicino alla chiesa di San Vito alla Rivera, costituisce quasi l'intero perimetro dell'omonima piazza quadrangolare posta adiacente alle mura urbiche, ed è costituita da novantatré mascheroni in pietra e sei cannelle singole, dalla maggior parte dei quali sgorga l'acqua: secondo la tradizione, le cannelle rappresenterebbero i novantanove castelli del circondario che, nel XIII secolo, parteciparono alla fondazione dell'Aquila.","wiki":"https://it.wikipedia.org/wiki/Fontana_delle_99_cannelle","wd":"https://www.wikidata.org/wiki/Q3076103"},{"id":"osm:relation/9710973","name":"Chiesa di Santa Chiara d'Acquili","lat":42.349178,"lng":13.391457,"kind":"church","img":"https://commons.wikimedia.org/wiki/Special:FilePath/L%27Aquila_-_Convento_di_Santa_Chiara_05.jpg?width=800","desc":"La chiesa di Santa Chiara con il monastero attiguo, è un edificio religioso dell'Aquila, situata nel quarto di San Giovanni.","wiki":"https://it.wikipedia.org/wiki/Chiesa_di_Santa_Chiara_(L'Aquila)","wd":"https://www.wikidata.org/wiki/Q65007214"},{"id":"osm:relation/9712891","name":"Ex mattatoio","lat":42.35038,"lng":13.388833,"kind":"attraction","img":"https://commons.wikimedia.org/wiki/Special:FilePath/Ex_mattatoio_L%27Aquila.jpg?width=800","desc":"L'ex mattatoio dell'Aquila è un complesso di edifici originariamente adibito alla macellazione ed alla distribuzione delle carni.\nRealizzato nella prima metà del XX secolo, è uno dei rari esempi di archeologia industriale in città; danneggiato dal sisma del 2009, è stato ricostruito tra il 2012 ed il 2015 per diventare la sede del museo nazionale d'Abruzzo (MUNDA).","wiki":"https://it.wikipedia.org/wiki/Ex_mattatoio_(L'Aquila)","wd":"https://www.wikidata.org/wiki/Q22263742"},{"id":"osm:relation/9762422","name":"Teatro San Filippo","lat":42.350042,"lng":13.397534,"kind":"attraction","img":"https://commons.wikimedia.org/wiki/Special:FilePath/L%27Aquila_-_San_Filippo_Neri_02.jpg?width=800","desc":"La chiesa di San Filippo Neri è un edificio religioso sconsacrato dell'Aquila, situato nel quarto di San Pietro,  di proprietà del Fondo edifici di culto (Ministero dell'Interno) e gestita in convenzione con il comune dell'Aquila.\nDeve la sua realizzazione all'ordine monastico di San Filippo Neri che la edificò tra il 1637 e il 1661.","wiki":"https://it.wikipedia.org/wiki/Chiesa_di_San_Filippo_(L'Aquila)","wd":"https://www.wikidata.org/wiki/Q62007320"},{"id":"osm:way/1012727729","name":"Ex stazione ferroviaria","lat":42.068643,"lng":14.444973,"kind":"attraction","img":"https://commons.wikimedia.org/wiki/Special:FilePath/Stazione_di_atessa_2025.jpg?width=800","desc":"La stazione di Atessa era la stazione ferroviaria capolinea della diramazione da Archi della ferrovia Sangritana. Serviva il centro abitato di Atessa.","wiki":"https://it.wikipedia.org/wiki/Stazione_di_Atessa","wd":"https://www.wikidata.org/wiki/Q55978734"},{"id":"osm:way/1053129287","name":"Casa Michetti","lat":42.212325,"lng":13.909847,"kind":"museum","img":"https://commons.wikimedia.org/wiki/Special:FilePath/Casa_Michetti_Fronte.jpg?width=800","desc":"La Casa Michetti, o Casa di Francesco Paolo Michetti, è una casa museo situata in Tocco da Casauria. Essa è la casa natale di Francesco Paolo Michetti, pittore toccolano.","wiki":"https://it.wikipedia.org/wiki/Casa_Michetti","wd":"https://www.wikidata.org/wiki/Q98092736"},{"id":"osm:way/1069133579","name":"Torre Adriana","lat":42.193668,"lng":14.220648,"kind":"tower","img":"https://commons.wikimedia.org/wiki/Special:FilePath/Torrione_Orsini%2CGuardiagrele.JPG?width=800","desc":"La cinta muraria di Guardiagrele comprendeva tutto l'abitato antico che si erge sopra il colle e il Piano del Rosario. Da alcuni testi riportati dallo storico locale Francesco Paolo Ranieri, si pensa che un primitivo fortilizio del villaggio di Grele, popolato dai Frentani, dovesse già esistere nell'epoca italica, e durante il governo romano.","wiki":"https://it.wikipedia.org/wiki/Porte_e_torri_di_Guardiagrele"},{"id":"osm:way/125433747","name":"Torre di Carlo V","lat":42.889912,"lng":13.898865,"kind":"tower","img":"https://commons.wikimedia.org/wiki/Special:FilePath/Torre_di_Martinsicuro.jpg?width=800","desc":"La torre di Martinsicuro o torre di Carlo V, si trova sulla costa dell'Adriatico, in provincia di Teramo, vicino alla foce del Tronto, nel comune di Martinsicuro, dalla statale adriatica è possibile vederla.\nDifferisce notevolmente dalle altre torri costiere abruzzesi mentre presenta analogie con quelle laziali, marchigiane e campane.","wiki":"https://it.wikipedia.org/wiki/Torre_di_Martinsicuro","wd":"https://www.wikidata.org/wiki/Q3995577"},{"id":"osm:way/137473583","name":"Museo Archeologico Nazionale d'Abruzzo - La Civitella","lat":42.345168,"lng":14.162334,"kind":"museum","img":"https://commons.wikimedia.org/wiki/Special:FilePath/ChietiAnfiteatro.jpg?width=800","desc":"Il museo archeologico \"La Civitella\" è sito nel parco archeologico de \"La Civitella\" a Chieti su progetto dell'architetto Ettore De Lellis, già progettista del Museo Paludi di Celano. Con il sovrastante anfiteatro romano, la struttura museale odierna, che in parte è sita in piani sotterranei, è parte integrante di un complesso con giardini, zone pedonali, un auditorium, un laboratorio archeologico, ambienti per attività ludiche e didattiche ed un ambiente per mostre temporanee.","wiki":"https://it.wikipedia.org/wiki/Museo_archeologico_La_Civitella","wd":"https://www.wikidata.org/wiki/Q3867665"},{"id":"osm:way/154636864","name":"Torre del Salinello","lat":42.763012,"lng":13.957828,"kind":"tower","img":"https://commons.wikimedia.org/wiki/Special:FilePath/Torre_del_Salinello%2C_Giulianova.jpg?width=800","desc":"La Torre del Salinello (nota anche come Torre Mazzaufo) è una delle antiche torri costiere del Regno di Napoli, si trova sulla costa dell'Adriatico, in provincia di Teramo, sul lato ovest della Statale Adriatica (ben visibile dalla strada a circa 1,5 km a sud del fiume Salinello) nella zona nord di Giulianova Lido.","wiki":"https://it.wikipedia.org/wiki/Torre_del_Salinello","wd":"https://www.wikidata.org/wiki/Q3995450"},{"id":"osm:way/166224112","name":"Castello di Rocca Calascio","lat":42.328894,"lng":13.68888,"kind":"castle","img":"https://commons.wikimedia.org/wiki/Special:FilePath/Rocca_Calascio_06_2023.jpg?width=800","desc":"Il castello di Rocca Calascio è una rocca situata in Abruzzo, nella frazione di Rocca Calascio, nel comune di Calascio, a un'altitudine di 1464 m s.l.m.. Il castello, costituito da una parte alta, più antica, di cui rimangono solamente alcuni resti archeologici e una parte bassa, più recente e parzialmente recuperata, è considerato uno dei simboli dell'Abruzzo.","wiki":"https://it.wikipedia.org/wiki/Castello_di_Rocca_Calascio","wd":"https://www.wikidata.org/wiki/Q1166100"},{"id":"osm:way/203709345","name":"Convento di San Giuliano","lat":42.372885,"lng":13.392007,"kind":"church","img":"https://commons.wikimedia.org/wiki/Special:FilePath/L%27Aquila_-_Convento_di_San_Giuliano_02.JPG?width=800","desc":"Il convento di San Giuliano è un edificio religioso dell'Aquila, situato fuori dalla cinta muraria, a ridosso dell'omonimo quartiere.\nRealizzato nel XV secolo, è stato dichiarato monumento nazionale nel 1902.","wiki":"https://it.wikipedia.org/wiki/Convento_di_San_Giuliano","wd":"https://www.wikidata.org/wiki/Q24034979"},{"id":"osm:way/23142406","name":"Museo delle genti d'Abruzzo","lat":42.461503,"lng":14.211695,"kind":"museum","img":"https://commons.wikimedia.org/wiki/Special:FilePath/Pescara_-Centro_Storico_Museo_delle_Genti_d%27Abruzzo-_2005_by-RaBoe_001.jpg?width=800","desc":"Il Museo delle genti d'Abruzzo è un museo di Pescara.","wiki":"https://it.wikipedia.org/wiki/Museo_delle_genti_d'Abruzzo","wd":"https://www.wikidata.org/wiki/Q3868143"},{"id":"osm:way/242088198","name":"Pinacoteca Civica di Teramo","lat":42.661778,"lng":13.697657,"kind":"museum","wiki":"https://it.wikipedia.org/wiki/Pinacoteca_civica_di_teramo"},{"id":"osm:way/243869580","name":"Fortezza di Civitella del Tronto","lat":42.772563,"lng":13.666493,"kind":"castle","img":"https://commons.wikimedia.org/wiki/Special:FilePath/Fortezza_di_Civitella_del_Tronto_vista_dalla_SP_52_%28TE%29.jpg?width=800","desc":"La fortezza di Civitella del Tronto è un'opera fortificata eretta come caposaldo preposto al controllo del territorio, con funzioni tattiche e difensive. La possente struttura è sorta a protezione dell'area strategica che la accoglie, elevandosi a ridosso della cresta di roccia, che sovrasta il centro urbano di Civitella del Tronto, sede dell'omonimo comune abruzzese, nel territorio della provincia di Teramo.","wiki":"https://it.wikipedia.org/wiki/Fortezza_di_Civitella_del_Tronto","wd":"https://www.wikidata.org/wiki/Q19271670"},{"id":"osm:way/244033906","name":"Palazzo Vescovile","lat":42.659133,"lng":13.703322,"kind":"museum","img":"https://commons.wikimedia.org/wiki/Special:FilePath/Vescovado%26Cattedrale_%28Teramo%29.jpg?width=800","desc":"Il Palazzo Vescovile, detto anche semplicemente Vescovado oppure Episcopio, è la struttura principale della diocesi di Teramo-Atri, situato a Teramo, in Piazza Martiri della Libertà, a pochi passi dalla Cattedrale.","wiki":"https://it.wikipedia.org/wiki/Palazzo_vescovile_di_Teramo"},{"id":"osm:way/248452981","name":"Osservatorio astronomico di Collurania","lat":42.654178,"lng":13.730772,"kind":"park","img":"https://commons.wikimedia.org/wiki/Special:FilePath/Osservatorio_astronomico_d%27Abruzzo.jpg?width=800","desc":"L'Osservatorio astronomico d'Abruzzo (già osservatorio astronomico di Teramo \"Vincenzo Cerulli\") sito in località Collurania a Teramo, è uno degli osservatori astronomici pubblici italiani. Insieme agli altri osservatori, cinque ex-istituti del Consiglio Nazionale delle Ricerche, e il telescopio nazionale Galileo, è parte dell'Istituto nazionale di astrofisica (INAF) e gestisce direttamente anche la Stazione osservativa di Campo Imperatore (AQ).","wiki":"https://it.wikipedia.org/wiki/Osservatorio_astronomico_di_Collurania","wd":"https://www.wikidata.org/wiki/Q1546378"},{"id":"osm:way/259798160","name":"Campanile di Sant'Antimo","lat":42.677685,"lng":13.987995,"kind":"tower","img":"https://commons.wikimedia.org/wiki/Special:FilePath/Montepagano.jpg?width=800","desc":"Montepagano è una frazione di Roseto degli Abruzzi, in provincia di Teramo. Centro più antico del territorio comunale, è il luogo in cui si è sviluppata la storia e l'urbanizzazione dell'attuale comune.","wiki":"https://it.wikipedia.org/wiki/Montepagano%23Torre_campanaria_di_Sant'Antimo"},{"id":"osm:way/276223521","name":"Villa Torlonia's park","lat":42.031304,"lng":13.423039,"kind":"park","img":"https://commons.wikimedia.org/wiki/Special:FilePath/Giornata_Fai_ad_Avezzano.jpg?width=800","desc":"Villa Torlonia è un parco presente al centro del contesto urbano della città di Avezzano, in Abruzzo che, insieme all'adiacente parco di piazza Torlonia, costituisce una vasta area verde di circa sei ettari. Nel parco sono presenti il giardino romantico, il museo della civiltà contadina e pastorale di Avezzano, il padiglione Torlonia, il palazzo Torlonia e la sezione di Archivio di Stato di Avezzano.","wiki":"https://it.wikipedia.org/wiki/Villa_Torlonia_(Avezzano)","wd":"https://www.wikidata.org/wiki/Q4012589"},{"id":"osm:way/28347974","name":"Parco del Sole","lat":42.34211,"lng":13.401849,"kind":"park","img":"https://commons.wikimedia.org/wiki/Special:FilePath/Parco_del_Sole_-_Ingresso.JPG?width=800","desc":"Il parco del Sole, ufficialmente Parco Chico Mendez, è un parco pubblico dell'Aquila.","wiki":"https://it.wikipedia.org/wiki/Parco_del_Sole","wd":"https://www.wikidata.org/wiki/Q60838264"},{"id":"osm:way/303178971","name":"Castrum Novum","lat":42.737492,"lng":13.968968,"kind":"heritage","img":"https://it.wikipedia.org/wiki/Special:FilePath/Giulianova-Bandiera.png?width=800","desc":"Giulianova è un comune italiano di 23 531 abitanti della provincia di Teramo in Abruzzo.\nA seguito delle distruzioni, prima del centro romano (Castrum Novum Picenii) e successivamente di quello medioevale (Castel San Flaviano), la città venne rifondata nella seconda metà del '400 dal duca di Atri, Giulio Antonio I Acquaviva d'Aragona, che la chiamò col suo nome e ne fece un esempio di città ideale rinascimentale.","wiki":"https://it.wikipedia.org/wiki/Giulianova%23Et%C3%A0_romana%3A_Castrum_Novum_Piceni"},{"id":"osm:way/323617039","name":"Museo Archeologico Nazionale","lat":42.72712,"lng":13.687752,"kind":"museum","img":"https://commons.wikimedia.org/wiki/Special:FilePath/Museo_archeologico_di_Campli_%28TE%29_-_ingresso.jpg?width=800","desc":"Il Museo archeologico nazionale di Campli è stato allestito per ospitare i reperti della vicina necropoli di Campovalano.\nDal dicembre 2014 il Ministero per i beni e le attività culturali lo gestisce tramite il Polo museale dell'Abruzzo, nel dicembre 2019 divenuto Direzione regionale Musei.","wiki":"https://it.wikipedia.org/wiki/Museo_archeologico_nazionale_di_Campli","wd":"https://www.wikidata.org/wiki/Q21552041"},{"id":"osm:way/342606605","name":"ex Stazione di Fossacesia","lat":42.252902,"lng":14.506844,"kind":"attraction","img":"https://commons.wikimedia.org/wiki/Special:FilePath/ExstazioneFossacesia.jpg?width=800","desc":"La stazione di Fossacesia era una stazione ferroviaria posta lungo la linea ferrovia Adriatica. Serviva il comune di Fossacesia.","wiki":"https://it.wikipedia.org/wiki/Stazione_di_Fossacesia","wd":"https://www.wikidata.org/wiki/Q20009821"},{"id":"osm:way/343943701","name":"Necropoli di Campovalano","lat":42.724161,"lng":13.671254,"kind":"heritage","img":"https://commons.wikimedia.org/wiki/Special:FilePath/Campovalano_Statale_81.JPG?width=800","desc":"Campovalano è una frazione del comune di Campli, in provincia di Teramo, di circa 600 abitanti.","wiki":"https://it.wikipedia.org/wiki/Campovalano","wd":"https://www.wikidata.org/wiki/Q3654770"},{"id":"osm:way/349526452","name":"Fontana Luminosa","lat":42.353819,"lng":13.401357,"kind":"attraction","desc":"Fontana luminosa – fontana dell'Aquila","wiki":"https://it.wikipedia.org/wiki/Fontana_luminosa","wd":"https://www.wikidata.org/wiki/Q3747448"},{"id":"osm:way/384454955","name":"Villa e Tomba Romana","lat":42.289408,"lng":14.056753,"kind":"heritage","img":"https://it.wikipedia.org/wiki/Special:FilePath/Manoppello-Gonfalone.png?width=800","desc":"Manoppello (Manuppèllë in abruzzese) è un comune italiano di 6 753 abitanti in provincia di Pescara in Abruzzo. Il centro storico del paese è situato sulle colline ai piedi del massiccio della Maiella e a breve distanza dalla Val Pescara, dove si è sviluppata dal XX secolo la frazione Manoppello scalo, sede di attività industriali e dell'interporto d'Abruzzo.","wiki":"https://it.wikipedia.org/wiki/Manoppello","wd":"https://www.wikidata.org/wiki/Q51370"},{"id":"osm:way/471953887","name":"Aia dei Musei","lat":42.02466,"lng":13.433777,"kind":"museum","wiki":"https://it.wikipedia.org/wiki/Aia_dei_Musei_(Avezzano)","wd":"https://www.wikidata.org/wiki/Q3868399"},{"id":"osm:way/473535931","name":"Eremo di Santo Spirito a Majella","lat":42.170947,"lng":14.088157,"kind":"church","img":"https://commons.wikimedia.org/wiki/Special:FilePath/Eremo_di_santo_spirito_a_majella.jpg?width=800","desc":"L'eremo di Santo Spirito è stato un monastero della Congregazione dei Celestini che si trova sulla Maiella, nel comune di Roccamorice, ed è un monumento nazionale italiano.","wiki":"https://it.wikipedia.org/wiki/Eremo_di_Santo_Spirito_a_Maiella","wd":"https://www.wikidata.org/wiki/Q3731375"},{"id":"osm:way/482040778","name":"Ruetta","lat":42.77264,"lng":13.668582,"kind":"attraction","img":"https://commons.wikimedia.org/wiki/Special:FilePath/Civitella_del_Tronto-Bandiera.svg?width=800","desc":"Civitella del Tronto (AFI: /tʃiviˈtɛlla del ˈtronto/) è un comune italiano di 4 547 abitanti della provincia di Teramo in Abruzzo. Fa parte dell'unione dei comuni Città Territorio-Val Vibrata ed è incluso nel club de I borghi più belli d'Italia.","wiki":"https://it.wikipedia.org/wiki/Civitella_del_Tronto%23Ruetta"},{"id":"osm:way/491351690","name":"Borgo Medioevale di Teramo","lat":42.660875,"lng":13.694976,"kind":"attraction","img":"https://commons.wikimedia.org/wiki/Special:FilePath/Castello_Della_Monica_-_nuova_illuminazione.JPG?width=800","desc":"Il borgo medievale di Teramo è un complesso di edifici ottocenteschi realizzati nell'omonimo comune, sul colle di San Venanzio, attraverso una fusione in un'unica struttura di differenti stili architettonici ed artistici (dal neogotico al moresco, con varie contaminazioni derivanti dalle numerose esperienze formative maturate nel tempo dal suo autore). L'edificio principale del borgo è il Castello Della Monica, la cui denominazione si estende anche agli altri fabbricati ed aree verdi circostanti.","wiki":"https://it.wikipedia.org/wiki/Borgo_Medioevale_di_Teramo","wd":"https://www.wikidata.org/wiki/Q3642501"},{"id":"osm:way/500801916","name":"Torre della Vibrata","lat":42.836451,"lng":13.924183,"kind":"tower","img":"https://commons.wikimedia.org/wiki/Special:FilePath/Torre_della_Vibrata_%28Alba_Adriatica%29.jpg?width=800","desc":"La Torre della Vibrata è una delle antiche torri costiere del Regno di Napoli, si trova sulla costa dell'Adriatico, in provincia di Teramo, vicino alla foce del torrente Vibrata, nel comune di Alba Adriatica, il cui tessuto urbanistico si è sviluppato inglobando l'antico manufatto.\nSi affaccia sul tracciato moderno di Via Cavour.","wiki":"https://it.wikipedia.org/wiki/Torre_della_Vibrata","wd":"https://www.wikidata.org/wiki/Q3995505"},{"id":"osm:way/501748940","name":"Basilica di San Giuseppe Artigiano","lat":42.349684,"lng":13.396709,"kind":"church","img":"https://commons.wikimedia.org/wiki/Special:FilePath/San_Biagio_%28L%27Aquila%29_01.jpg?width=800","desc":"La basilica di San Giuseppe Artigiano, precedentemente nota con il titolo di San Biagio d'Amiterno e in antichità con quello di San Vittorino, è un edificio religioso dell'Aquila, situato nel quarto di San Pietro.\nDeve la sua realizzazione ai castellani di Amiterno (l'antica città sabina di Amiternum, oggi corrispondente a San Vittorino) che contribuirono così alla fondazione della città nel XIII secolo.","wiki":"https://it.wikipedia.org/wiki/Basilica_di_San_Giuseppe_Artigiano","wd":"https://www.wikidata.org/wiki/Q3669707"},{"id":"osm:way/59516555","name":"Abbazia di San Liberatore a Majella","lat":42.235472,"lng":14.099987,"kind":"church","img":"https://commons.wikimedia.org/wiki/Special:FilePath/San_Liberatore_Serramonacesca_1.jpg?width=800","desc":"L'abbazia di San Liberatore alla Maiella, ubicata nel comune di Serramonacesca in provincia di Pescara, è uno dei più antichi monasteri dell'Abruzzo.\nDivenuta monumento nazionale dal 1902, l'abbazia non sembrerebbe dedicata a san Liberatore vescovo e/o martire, bensì a Gesù Cristo il santissimo salvatore e liberatore, cui era effettivamente intitolato l'altare principale.","wiki":"https://it.wikipedia.org/wiki/Abbazia_di_San_Liberatore_a_Majella","wd":"https://www.wikidata.org/wiki/Q306162"},{"id":"osm:way/60295526","name":"Museo Archeologico Nazionale d'Abruzzo - Villa Frigerj","lat":42.342982,"lng":14.164551,"kind":"museum","img":"https://commons.wikimedia.org/wiki/Special:FilePath/Museo_archeologico_nazionale_d%27Abruzzo_01.jpg?width=800","desc":"Villa Frigerj è un edificio storico di Chieti, situato in Via Guido Costanzi. Attualmente ospita il Museo archeologico nazionale d'Abruzzo.","wiki":"https://it.wikipedia.org/wiki/Villa_Frigerj","wd":"https://www.wikidata.org/wiki/Q56234520"},{"id":"osm:way/60543115","name":"Torre del Cerrano","lat":42.584993,"lng":14.089387,"kind":"tower","img":"https://commons.wikimedia.org/wiki/Special:FilePath/Pineto_-_Torre_di_Cerrano_09.jpg?width=800","desc":"La Torre del Cerrano è una delle antiche torri costiere del Regno di Napoli, si trova sulla costa dell'Adriatico a Pineto, in provincia di Teramo; la torre è situata a due chilometri a sud dell'abitato, e spicca nettamente all'orizzonte su una piccola collina a ridosso della spiaggia.\nDeve il suo nome al vicino torrente Cerrano (l'antico Matrinus), il cui nome a sua volta deriva probabilmente da quello della dea Cerere (Demeter, Dea Mater).","wiki":"https://it.wikipedia.org/wiki/Torre_del_Cerrano","wd":"https://www.wikidata.org/wiki/Q3995557"},{"id":"osm:way/606148989","name":"Roman amphitheater of Amiternum","lat":42.400509,"lng":13.306073,"kind":"heritage","img":"https://commons.wikimedia.org/wiki/Special:FilePath/Amiternum.jpg?width=800","desc":"L'anfiteatro romano di Amiternum era il principale anfiteatro dell'antica città sabina di Amiternum, i cui resti archeologici sono situati nei pressi dell'abitato di San Vittorino nel territorio comunale dell'Aquila.","wiki":"https://it.wikipedia.org/wiki/Anfiteatro_romano_di_Amiternum","wd":"https://www.wikidata.org/wiki/Q2379643"},{"id":"osm:way/610049494","name":"Fontana dei due leoni","lat":42.658865,"lng":13.70397,"kind":"attraction","desc":"Pasquale Morganti (Teramo, 1861 – Teramo, 22 giugno 1940) è stato uno scultore e architetto italiano.\nFra le sue opere la Fontana dei due leoni a Teramo, realizzata nel 1899..","wiki":"https://it.wikipedia.org/wiki/Pasquale_Morganti_(scultore)%23La_Fontana_dei_Due_Leoni"},{"id":"osm:way/821633087","name":"Museo del Mare","lat":42.466808,"lng":14.221309,"kind":"museum","img":"https://commons.wikimedia.org/wiki/Special:FilePath/Pescara_2010-by-RaBoe-042.jpg?width=800","desc":"Il Museo del Mare è un museo di Pescara.","wiki":"https://it.wikipedia.org/wiki/Museo_ittico","wd":"https://www.wikidata.org/wiki/Q3868393"},{"id":"osm:way/847879952","name":"Porta Napoli","lat":42.772953,"lng":13.669777,"kind":"castle","img":"https://commons.wikimedia.org/wiki/Special:FilePath/Civitella_del_Tronto-Bandiera.svg?width=800","desc":"Civitella del Tronto (AFI: /tʃiviˈtɛlla del ˈtronto/) è un comune italiano di 4 547 abitanti della provincia di Teramo in Abruzzo. Fa parte dell'unione dei comuni Città Territorio-Val Vibrata ed è incluso nel club de I borghi più belli d'Italia.","wiki":"https://it.wikipedia.org/wiki/Civitella_del_Tronto%23Porta_Napoli"},{"id":"osm:way/849934800","name":"Palazzo Corvo","lat":42.357994,"lng":14.405725,"kind":"attraction","img":"https://commons.wikimedia.org/wiki/Special:FilePath/Palazzo_Farnese_Ortona.jpg?width=800","desc":"Questa pagina tratta l'architettura civile di Ortona in provincia di Chieti.","wiki":"https://it.wikipedia.org/wiki/Palazzi_di_Ortona%23Palazzo_Corvo"},{"id":"osm:way/914419375","name":"Palazzo Leognani-Fieramosca","lat":42.326036,"lng":13.896921,"kind":"attraction","img":"https://commons.wikimedia.org/wiki/Special:FilePath/Civitaquana%2C_Chiesa_di_Santa_Maria_delle_Grazie%2C_01.jpg?width=800","desc":"Civitaquana (Cetacquàne in abruzzese) è un comune italiano di 1 151 abitanti della provincia di Pescara in Abruzzo e faceva parte della comunità montana Vestina.","wiki":"https://it.wikipedia.org/wiki/Civitaquana%23Palazzo_Leognani_Castriota_-_Leognani_Fieramosca"},{"id":"osm:way/93716446","name":"Eremo Dannunziano","lat":42.297721,"lng":14.46221,"kind":"attraction","img":"https://commons.wikimedia.org/wiki/Special:FilePath/Vista_dall%27Eremo_Dannunziano_-_panoramio.jpg?width=800","desc":"L'Eremo dannunziano (chiamato anche eremo di San Vito) è un casolare (adibito ad eremo) costruito su un promontorio localizzato nella contrada delle Portelle a San Vito Chietino, dove nell’estate del 1889 risiedette Gabriele d’Annunzio.\nLa zona, nonché il promontorio stesso e il litorale sottostante, è chiamata promontorio dannunziano.","wiki":"https://it.wikipedia.org/wiki/Eremo_dannunziano","wd":"https://www.wikidata.org/wiki/Q30889881"},{"id":"osm:way/971788900","name":"Teatro Comunale di Città Sant’Angelo","lat":42.518625,"lng":14.058844,"kind":"attraction","img":"https://commons.wikimedia.org/wiki/Special:FilePath/Citt%C3%A0_Sant%27Angelo_-_Pescara%2C_Italy_-_August_9%2C_2019_02.jpg?width=800","desc":"Città Sant'Angelo è un comune italiano di 14 964 abitanti della provincia di Pescara in Abruzzo. Fa parte dell'area metropolitana di Pescara, e grazie alla vicinanza con il capoluogo presenta uno dei maggiori tassi di crescita demografica sia a livello provinciale che regionale.","wiki":"https://it.wikipedia.org/wiki/Citt%C3%A0_Sant'Angelo%23Teatro_Comunale"},{"id":"wd:Q100830091","name":"Madonna delle Grazie","lat":41.879166666667,"lng":13.581416666667,"kind":"church","img":"https://commons.wikimedia.org/wiki/Special:FilePath/Madonna%20delle%20Grazie%20Collelongo.jpg?width=800","desc":"La chiesa di Santa Maria delle Grazie, detta anche chiesa della Madonna a Monte, è un edificio di culto cattolico di Collelongo (AQ), in Abruzzo, nel territorio della diocesi di Avezzano.","wiki":"https://it.wikipedia.org/wiki/Chiesa_di_Santa_Maria_delle_Grazie_(Collelongo)","wd":"https://www.wikidata.org/wiki/Q100830091"},{"id":"wd:Q100839804","name":"Sant'Antonio","lat":41.888575,"lng":13.609483,"kind":"church","img":"https://commons.wikimedia.org/wiki/Special:FilePath/Collelongo%20-%20Cappella%20di%20Sant%27Antonio%2004.jpg?width=800","wd":"https://www.wikidata.org/wiki/Q100839804"},{"id":"wd:Q100846398","name":"Palazzo Botticelli","lat":41.884403,"lng":13.584388,"kind":"palace","img":"https://commons.wikimedia.org/wiki/Special:FilePath/Collelongo%20palazzo%20Botticelli.jpg?width=800","wd":"https://www.wikidata.org/wiki/Q100846398"},{"id":"wd:Q100859527","name":"Palazzo Floridi","lat":41.883884,"lng":13.584091,"kind":"palace","img":"https://commons.wikimedia.org/wiki/Special:FilePath/Collelongo%20-%20Palazzo%20Floridi%2004.jpg?width=800","wd":"https://www.wikidata.org/wiki/Q100859527"},{"id":"wd:Q100868752","name":"La Giostra","lat":41.917846,"lng":13.600281,"kind":"heritage","img":"https://commons.wikimedia.org/wiki/Special:FilePath/Collelongo%20-%20Acropoli%20La%20Giostra%2012.jpg?width=800","wd":"https://www.wikidata.org/wiki/Q100868752"},{"id":"wd:Q100868888","name":"Cantone","lat":41.919828,"lng":13.604608,"kind":"heritage","img":"https://commons.wikimedia.org/wiki/Special:FilePath/Collelongo%20-%20Necropoli%20di%20Cantone%2004.jpg?width=800","wd":"https://www.wikidata.org/wiki/Q100868888"},{"id":"wd:Q101035048","name":"Sant'Eustachio","lat":42.21349,"lng":13.91228,"kind":"church","img":"https://commons.wikimedia.org/wiki/Special:FilePath/La%20Chiesa%20-%20panoramio%20%283%29.jpg?width=800","desc":"La chiesa di Sant'Eustachio Martire è una chiesa cattolica di Tocco da Casauria, in provincia di Pescara e arcidiocesi di Chieti-Vasto.\nÈ ubicata al centro storico del paese, di fianco al Palazzo Ducale.","wiki":"https://it.wikipedia.org/wiki/Chiesa_di_Sant'Eustachio_Martire","wd":"https://www.wikidata.org/wiki/Q101035048"},{"id":"wd:Q101077553","name":"Madonna delle Grazie","lat":42.211784,"lng":13.916401,"kind":"church","img":"https://commons.wikimedia.org/wiki/Special:FilePath/Chiesa%20della%20Madonna%20delle%20Grazie%20-%20Tocco%20da%20Casauria.jpg?width=800","desc":"La chiesa della Madonna delle Grazie è una chiesa di Tocco da Casauria ubicata davanti all'innesto di Via Capo Croce alla Strada Provinciale 67.\nInizialmente costruito come oratorio fuori dalle mura del paese, per ospitare i domenicani, fu poi convertito in chiesa fra la seconda metà del Quattrocento e gli inizi del Cinquecento.","wiki":"https://it.wikipedia.org/wiki/Chiesa_della_Madonna_delle_Grazie_(Tocco_da_Casauria)","wd":"https://www.wikidata.org/wiki/Q101077553"},{"id":"wd:Q101078038","name":"Sant'Antonio di Padova","lat":42.211137,"lng":13.922232,"kind":"church","img":"https://commons.wikimedia.org/wiki/Special:FilePath/Chiesa%20di%20Sant%27Antonio%20al%20cimitero%20-%20Tocco%20da%20Casauria.jpg?width=800","wd":"https://www.wikidata.org/wiki/Q101078038"},{"id":"wd:Q101416743","name":"Santa Maria delle Grazie","lat":42.208292,"lng":13.64346,"kind":"church","img":"https://commons.wikimedia.org/wiki/Special:FilePath/Tione%20degli%20Abruzzi%20-%20Chiesa%20di%20Santa%20Maria%20delle%20Grazie%2001.jpg?width=800","wd":"https://www.wikidata.org/wiki/Q101416743"},{"id":"wd:Q101417317","name":"Madonna di Loreto","lat":42.198521,"lng":13.611848,"kind":"church","img":"https://commons.wikimedia.org/wiki/Special:FilePath/Pagliare%20%28Tione%20degli%20Abruzzi%29%20-%20Chiesa%20della%20Madonna%20di%20Loreto%2001.jpg?width=800","wd":"https://www.wikidata.org/wiki/Q101417317"},{"id":"wd:Q101515072","name":"Sacro Cuore","lat":42.350466,"lng":14.177564,"kind":"church","img":"https://commons.wikimedia.org/wiki/Special:FilePath/Chieti%202008%20-Sacro%20Cuore-%20by-RaBoe-01.jpg?width=800","wd":"https://www.wikidata.org/wiki/Q101515072"},{"id":"wd:Q101515934","name":"Santissimi Pietro e Paolo","lat":42.348428,"lng":14.16537,"kind":"church","img":"https://commons.wikimedia.org/wiki/Special:FilePath/Templi%20Romani%20di%20Chieti%202.JPG?width=800","wd":"https://www.wikidata.org/wiki/Q101515934"},{"id":"wd:Q101670276","name":"Ruderi Castel Mancino","lat":41.800277777778,"lng":13.783888888889,"kind":"castle","img":"https://commons.wikimedia.org/wiki/Special:FilePath/Castello%20di%20Pescasseroli.jpg?width=800","desc":"Il castello di Pescasseroli, noto anche come castel Mancino, si trova a Pescasseroli (AQ), in Abruzzo. Di esso restano i ruderi del recinto e delle torri.","wiki":"https://it.wikipedia.org/wiki/Castello_di_Pescasseroli","wd":"https://www.wikidata.org/wiki/Q101670276"},{"id":"wd:Q101785306","name":"Madonna delle Grazie","lat":42.227617,"lng":13.608584,"kind":"church","img":"https://commons.wikimedia.org/wiki/Special:FilePath/Fontecchio%20-%20Chiesa%20della%20Madonna%20delle%20Grazie%2001.jpg?width=800","wd":"https://www.wikidata.org/wiki/Q101785306"},{"id":"wd:Q101808131","name":"San Gregorio","lat":42.314783,"lng":13.297246,"kind":"church","img":"https://commons.wikimedia.org/wiki/Special:FilePath/Chiesa%20di%20San%20Gregorio%2C%20Foce%20di%20Sassa%2C%20L%27Aquila%2001.jpg?width=800","desc":"La Chiesa di San Gregorio in Foce di Sassa è un edificio religioso dell'Aquila, situato all'interno del centro abitato della frazione di Foce di Sassa, nel circondario di Sassa .","wiki":"https://it.wikipedia.org/wiki/Chiesa_di_San_Gregorio_in_Foce_di_Sassa","wd":"https://www.wikidata.org/wiki/Q101808131"},{"id":"wd:Q101810337","name":"Sant'Andrea","lat":42.315598,"lng":13.317036,"kind":"church","img":"https://commons.wikimedia.org/wiki/Special:FilePath/Lucoli%20-%20Chiesa%20di%20Sant%27Andrea%2004.jpg?width=800","wd":"https://www.wikidata.org/wiki/Q101810337"},{"id":"wd:Q101811855","name":"chiesa dell'Ave Maria","lat":42.311596,"lng":13.321158,"kind":"church","img":"https://commons.wikimedia.org/wiki/Special:FilePath/San%20Menna%20%28Lucoli%29%20-%20Chiesa%20dell%27Ave%20Maria.jpg?width=800","wd":"https://www.wikidata.org/wiki/Q101811855"},{"id":"wd:Q101830451","name":"di Nostra Signora del Suffragio","lat":42.034418,"lng":13.421284,"kind":"church","img":"https://commons.wikimedia.org/wiki/Special:FilePath/Chiesa%20di%20Nostra%20Signora%20del%20Suffragio.jpg?width=800","wd":"https://www.wikidata.org/wiki/Q101830451"},{"id":"wd:Q101846345","name":"Convento dei Frati Cappuccini","lat":41.94636,"lng":13.477636,"kind":"church","img":"https://commons.wikimedia.org/wiki/Special:FilePath/Luco%20convento%20frati%201.jpg?width=800","wd":"https://www.wikidata.org/wiki/Q101846345"},{"id":"wd:Q101848026","name":"Sacro Cuore","lat":42.037059,"lng":13.422264,"kind":"church","img":"https://commons.wikimedia.org/wiki/Special:FilePath/Avezzano%20Sacro%20Cuore%201.jpg?width=800","wd":"https://www.wikidata.org/wiki/Q101848026"},{"id":"wd:Q101849891","name":"San Domenico","lat":42.090989,"lng":13.359711,"kind":"church","img":"https://commons.wikimedia.org/wiki/Special:FilePath/San%20Domenico%20a%20Magliano%20de%27%20Marsi.jpg?width=800","wd":"https://www.wikidata.org/wiki/Q101849891"},{"id":"wd:Q101855728","name":"chiesa di Santa Croce","lat":42.304696,"lng":13.319649,"kind":"church","img":"https://commons.wikimedia.org/wiki/Special:FilePath/Chiesadisantacroce.jpg?width=800","wd":"https://www.wikidata.org/wiki/Q101855728"},{"id":"wd:Q102035011","name":"oratorio di Maria Santissima Addolorata","lat":42.175883,"lng":13.717214,"kind":"church","img":"https://commons.wikimedia.org/wiki/Special:FilePath/Acciano%202008%20-%20-%20by-RaBoe%20004.jpg?width=800","wd":"https://www.wikidata.org/wiki/Q102035011"},{"id":"wd:Q102181691","name":"San Nicola Vescovo","lat":42.044014,"lng":14.726861,"kind":"church","img":"https://commons.wikimedia.org/wiki/Special:FilePath/San%20Nicola%20San%20Salvo%20restauro.jpg?width=800","desc":"La chiesa parrocchiale di San Nicola Vescovo è un edificio di culto situato a San Salvo, in provincia di Chieti ed arcidiocesi di Chieti-Vasto.","wiki":"https://it.wikipedia.org/wiki/Chiesa_di_San_Nicola_Vescovo_(San_Salvo)","wd":"https://www.wikidata.org/wiki/Q102181691"},{"id":"wd:Q102348130","name":"chiesa di Santa Maria di Portolungo","lat":42.585215346844,"lng":13.741501746145,"kind":"church","img":"https://commons.wikimedia.org/wiki/Special:FilePath/Chiesa%20di%20S%20Maria%20Portolungo%201.jpg?width=800","wd":"https://www.wikidata.org/wiki/Q102348130"},{"id":"wd:Q102348269","name":"chiesa di San Flaviano","lat":42.594506827271,"lng":13.739863711851,"kind":"church","img":"https://commons.wikimedia.org/wiki/Special:FilePath/Chiesa%20di%20S%20Flaviano%20Basciano.jpg?width=800","wd":"https://www.wikidata.org/wiki/Q102348269"},{"id":"wd:Q102348416","name":"chiesa di Sant'Agostino","lat":42.599401,"lng":13.734128,"kind":"church","img":"https://commons.wikimedia.org/wiki/Special:FilePath/Chiesa%20di%20S%20Agostino%20Basciano.jpg?width=800","wd":"https://www.wikidata.org/wiki/Q102348416"},{"id":"wd:Q102348443","name":"chiesa della Madonna delle Grazie","lat":42.60224,"lng":13.729261,"kind":"church","img":"https://commons.wikimedia.org/wiki/Special:FilePath/Chiesa%20Madonna%20delle%20Grazie%20Basciano.jpg?width=800","wd":"https://www.wikidata.org/wiki/Q102348443"},{"id":"wd:Q102388295","name":"Santa Maria delle Grazie","lat":42.101992,"lng":13.205636,"kind":"church","img":"https://commons.wikimedia.org/wiki/Special:FilePath/Sante%20Marie%20-%20chiesa%20di%20Santa%20Maria%20delle%20Grazie%20-%202026-04-27%2008-04-02%20003.jpg?width=800","wd":"https://www.wikidata.org/wiki/Q102388295"},{"id":"wd:Q102388825","name":"Church Santo Stefano","lat":42.121458486796,"lng":13.227079679031,"kind":"church","img":"https://commons.wikimedia.org/wiki/Special:FilePath/Sante%20Marie%20-%20chiesa%20di%20Santo%20Stefano%20Protomartire%20-%202026-04-27%2008-08-28%20002.jpg?width=800","wd":"https://www.wikidata.org/wiki/Q102388825"},{"id":"wd:Q102389125","name":"Sant'Atanasio","lat":42.105746367339,"lng":13.250202421484,"kind":"church","img":"https://commons.wikimedia.org/wiki/Special:FilePath/Sante%20Marie%20-%20chiesa%20di%20San%20Cipriano%20e%20Santa%20Giustina%20-%202026-04-27%2008-14-01%20014.jpg?width=800","wd":"https://www.wikidata.org/wiki/Q102389125"},{"id":"wd:Q102389623","name":"San Giovanni Battista","lat":42.091892,"lng":13.209754,"kind":"church","img":"https://commons.wikimedia.org/wiki/Special:FilePath/San%20Giovanni%20dei%20Marsi2.jpg?width=800","wd":"https://www.wikidata.org/wiki/Q102389623"},{"id":"wd:Q102389790","name":"San Martino","lat":42.12895,"lng":13.20358,"kind":"church","img":"https://commons.wikimedia.org/wiki/Special:FilePath/Sante%20Marie%20-%20chiesa%20di%20San%20Martino%20-%202026-04-27%2008-07-05%20003.jpg?width=800","wd":"https://www.wikidata.org/wiki/Q102389790"},{"id":"wd:Q102391002","name":"San Pietro","lat":42.105064,"lng":13.234845,"kind":"church","img":"https://commons.wikimedia.org/wiki/Special:FilePath/Chiesa%20di%20San%20Pietro%20Tubione%201.jpg?width=800","wd":"https://www.wikidata.org/wiki/Q102391002"},{"id":"wd:Q102391363","name":"chiesa della Madonna della Stella","lat":42.092355,"lng":13.20792,"kind":"church","img":"https://commons.wikimedia.org/wiki/Special:FilePath/SanGiovanni%20Madonna%20della%20Stella.jpg?width=800","wd":"https://www.wikidata.org/wiki/Q102391363"},{"id":"wd:Q102391516","name":"San Nicola","lat":42.100721,"lng":13.206742,"kind":"church","img":"https://commons.wikimedia.org/wiki/Special:FilePath/Sante%20Marie%20-%20chiesa%20di%20San%20Nicola%20-%202026-04-27%2008-02-25%20001.jpg?width=800","wd":"https://www.wikidata.org/wiki/Q102391516"},{"id":"wd:Q102391826","name":"chiesa di San Michele Arcangelo","lat":42.155875,"lng":13.185903,"kind":"church","img":"https://commons.wikimedia.org/wiki/Special:FilePath/Val%20de%27%20Varri%20Chiesa%20San%20Michele.jpg?width=800","wd":"https://www.wikidata.org/wiki/Q102391826"},{"id":"wd:Q102396354","name":"San Giacomo Apostolo","lat":42.372520853177,"lng":13.255487401822,"kind":"church","img":"https://commons.wikimedia.org/wiki/Special:FilePath/Scoppito%20-%20Chiesa%20di%20San%20Giacomo%20Apostolo%2001.jpg?width=800","wd":"https://www.wikidata.org/wiki/Q102396354"},{"id":"wd:Q102396444","name":"San Bartolomeo Apostolo","lat":42.361622813433,"lng":13.251743317901,"kind":"church","img":"https://commons.wikimedia.org/wiki/Special:FilePath/Scoppito%20-%20Chiesa%20di%20San%20Bartolomeo%20Apostolo%2006.jpg?width=800","wd":"https://www.wikidata.org/wiki/Q102396444"},{"id":"wd:Q102396681","name":"San Giovanni Battista","lat":42.354591776257,"lng":13.280662159708,"kind":"church","img":"https://commons.wikimedia.org/wiki/Special:FilePath/Scoppito%20-%20Chiesa%20di%20San%20Giovanni%20Battista%2006.jpg?width=800","wd":"https://www.wikidata.org/wiki/Q102396681"},{"id":"wd:Q102396780","name":"San Valentino","lat":42.374885,"lng":13.254631,"kind":"church","img":"https://commons.wikimedia.org/wiki/Special:FilePath/Scoppito%20-%20Chiesa%20di%20San%20Valentino%2005.jpg?width=800","wd":"https://www.wikidata.org/wiki/Q102396780"},{"id":"wd:Q102396858","name":"Santa Maria in Fontepianura","lat":42.36689073303,"lng":13.261773295989,"kind":"church","img":"https://commons.wikimedia.org/wiki/Special:FilePath/Scoppito%20-%20Chiesa%20di%20Santa%20Maria%20in%20Fontepianura%2001.jpg?width=800","wd":"https://www.wikidata.org/wiki/Q102396858"},{"id":"wd:Q102396936","name":"Sant'Andrea Apostolo","lat":42.363187348454,"lng":13.260352611658,"kind":"church","img":"https://commons.wikimedia.org/wiki/Special:FilePath/Scoppito%20-%20Chiesa%20di%20Sant%27Andrea%20Apostolo%2001.jpg?width=800","wd":"https://www.wikidata.org/wiki/Q102396936"},{"id":"wd:Q102397352","name":"Santa Maria della Consolazione","lat":42.154098,"lng":13.677763,"kind":"church","img":"https://commons.wikimedia.org/wiki/Special:FilePath/Secinaro%20-%20Chiesa%20di%20Santa%20Maria%20della%20Consolazione%2002.jpg?width=800","wd":"https://www.wikidata.org/wiki/Q102397352"},{"id":"wd:Q102397419","name":"San Nicola","lat":42.155469891934,"lng":13.679284075745,"kind":"church","img":"https://commons.wikimedia.org/wiki/Special:FilePath/Secinaro%20-%20Chiesa%20di%20San%20Nicola%2001.jpg?width=800","wd":"https://www.wikidata.org/wiki/Q102397419"},{"id":"wd:Q102398345","name":"Madonna del Perpetuo Soccorso","lat":41.959249351384,"lng":13.532319240391,"kind":"church","img":"https://commons.wikimedia.org/wiki/Special:FilePath/Trasacco%20Chiesa%20Madonna%20Perpetuo%20Soccorso.jpg?width=800","wd":"https://www.wikidata.org/wiki/Q102398345"},{"id":"wd:Q102399773","name":"San Carlo Borromeo","lat":42.329454,"lng":13.771586,"kind":"church","img":"https://commons.wikimedia.org/wiki/Special:FilePath/Chiesa%20di%20San%20Carlo%20Borromeo%20%28Carrufo%2C%20Villa%20Santa%20Lucia%20degli%20Abruzzi%29.JPG?width=800","wd":"https://www.wikidata.org/wiki/Q102399773"},{"id":"wd:Q102399957","name":"San Michele Arcangelo","lat":42.123167448987,"lng":13.817299263522,"kind":"church","img":"https://commons.wikimedia.org/wiki/Special:FilePath/Vittorito%2004.jpg?width=800","wd":"https://www.wikidata.org/wiki/Q102399957"},{"id":"wd:Q102400088","name":"Madonna della Lanna","lat":41.835936,"lng":13.673345,"kind":"church","img":"https://commons.wikimedia.org/wiki/Special:FilePath/Madonna%20della%20Lanna%201.jpg?width=800","wd":"https://www.wikidata.org/wiki/Q102400088"},{"id":"wd:Q102400166","name":"Santi Leucio e Nicola","lat":41.86662,"lng":13.62398,"kind":"church","img":"https://commons.wikimedia.org/wiki/Special:FilePath/Chiesa%20dei%20Santi%20Leucio%20e%20Nicola%20a%20Villavallelonga.jpg?width=800","wd":"https://www.wikidata.org/wiki/Q102400166"},{"id":"wd:Q102400241","name":"Madonna delle Grazie","lat":41.866355,"lng":13.625594,"kind":"church","img":"https://commons.wikimedia.org/wiki/Special:FilePath/Chiesa%20della%20Madonna%20delle%20Grazie%20Villavallelonga.jpg?width=800","wd":"https://www.wikidata.org/wiki/Q102400241"},{"id":"wd:Q103902413","name":"chiesa della Santissima Trinità","lat":41.809808403233,"lng":13.558975484368,"kind":"church","img":"https://commons.wikimedia.org/wiki/Special:FilePath/Balsorano%20chiesa%20ss%20trinit%C3%A0.jpg?width=800","wd":"https://www.wikidata.org/wiki/Q103902413"},{"id":"wd:Q103904095","name":"chiesa di San Rocco","lat":41.802863,"lng":13.574439,"kind":"church","img":"https://commons.wikimedia.org/wiki/Special:FilePath/Balsorano%20vecchio%20chiesa%20San%20Rocco.jpg?width=800","wd":"https://www.wikidata.org/wiki/Q103904095"},{"id":"wd:Q103909898","name":"chiesa di Sant'Agata","lat":41.78711,"lng":13.568473,"kind":"church","img":"https://commons.wikimedia.org/wiki/Special:FilePath/Collepiano%20chiesa%20sant%27Agata.jpg?width=800","wd":"https://www.wikidata.org/wiki/Q103909898"},{"id":"wd:Q103912079","name":"chiesa di Santa Maria dei Sassi","lat":41.788293,"lng":13.609236,"kind":"church","img":"https://commons.wikimedia.org/wiki/Special:FilePath/Ridotti%20Santa%20Maria%20dei%20Sassi%20e%20piazza.jpg?width=800","wd":"https://www.wikidata.org/wiki/Q103912079"},{"id":"wd:Q103913336","name":"San Flaviano","lat":42.326777369736,"lng":13.590054133339,"kind":"church","img":"https://commons.wikimedia.org/wiki/Special:FilePath/Barisciano%20-%20Chiesa%20di%20San%20Flaviano%2004.jpg?width=800","wd":"https://www.wikidata.org/wiki/Q103913336"},{"id":"wd:Q103913951","name":"Santa Maria di Valleverde","lat":42.325874257039,"lng":13.586307647168,"kind":"church","img":"https://commons.wikimedia.org/wiki/Special:FilePath/Barisciano%20-%20Santa%20Maria%20di%20Valleverde%2002.jpg?width=800","wd":"https://www.wikidata.org/wiki/Q103913951"},{"id":"wd:Q103918620","name":"Madonna del Rosario","lat":42.331603,"lng":13.535543,"kind":"church","img":"https://commons.wikimedia.org/wiki/Special:FilePath/San%20Martino%20%28Barisciano%29%20-%20Chiesa%20della%20Madonna%20del%20Rosario%2003.jpg?width=800","wd":"https://www.wikidata.org/wiki/Q103918620"},{"id":"wd:Q103920445","name":"Santa Maria di Capo di Serra","lat":42.32608,"lng":13.59228,"kind":"church","img":"https://commons.wikimedia.org/wiki/Special:FilePath/Barisciano%20-%20Chiesa%20di%20Santa%20Maria%20di%20Capo%20di%20Serra%2001.jpg?width=800","wd":"https://www.wikidata.org/wiki/Q103920445"},{"id":"wd:Q103921304","name":"Santa Maria del Carmine","lat":42.324485,"lng":13.594335,"kind":"church","img":"https://commons.wikimedia.org/wiki/Special:FilePath/Barisciano%20-%20Chiesa%20di%20Santa%20Maria%20del%20Carmine%2004.jpg?width=800","wd":"https://www.wikidata.org/wiki/Q103921304"},{"id":"wd:Q103922141","name":"Madonna dell'Immacolata","lat":42.326546,"lng":13.590297,"kind":"church","img":"https://commons.wikimedia.org/wiki/Special:FilePath/Barisciano%20-%20Chiesa%20della%20Madonna%20dell%27Immacolata%2001.jpg?width=800","wd":"https://www.wikidata.org/wiki/Q103922141"},{"id":"wd:Q103923745","name":"Castello di Poggio Picenze","lat":42.320008,"lng":13.541378,"kind":"castle","img":"https://commons.wikimedia.org/wiki/Special:FilePath/Poggio%20Picenze%20Castle%20Remains.JPG?width=800","wd":"https://www.wikidata.org/wiki/Q103923745"},{"id":"wd:Q103924423","name":"San Martino","lat":42.330606,"lng":13.536274,"kind":"church","img":"https://commons.wikimedia.org/wiki/Special:FilePath/Barisciano%20-%20Chiesa%20di%20San%20Martino%2002.jpg?width=800","wd":"https://www.wikidata.org/wiki/Q103924423"},{"id":"wd:Q103925037","name":"chiesa di San Rocco","lat":42.324945,"lng":13.599999,"kind":"church","img":"https://commons.wikimedia.org/wiki/Special:FilePath/Barisciano%20AQ%20-%20Castello%2012.JPG?width=800","wd":"https://www.wikidata.org/wiki/Q103925037"},{"id":"wd:Q103925408","name":"Santa Maria","lat":42.331039,"lng":13.524324,"kind":"church","img":"https://commons.wikimedia.org/wiki/Special:FilePath/Petogna%20%28Barisciano%29%20-%20Chiesa%20di%20Santa%20Maria%2002.jpg?width=800","wd":"https://www.wikidata.org/wiki/Q103925408"},{"id":"wd:Q103926131","name":"Santa Maria della Pietà","lat":42.33228,"lng":13.593988,"kind":"church","img":"https://commons.wikimedia.org/wiki/Special:FilePath/Barisciano%20-%20Chiesa%20di%20Santa%20Maria%20della%20Piet%C3%A0%2003.jpg?width=800","wd":"https://www.wikidata.org/wiki/Q103926131"},{"id":"wd:Q103941675","name":"Santa Maria Assunta","lat":42.55746,"lng":13.369999,"kind":"church","img":"https://commons.wikimedia.org/wiki/Special:FilePath/Campotosto%20%28AQ%29%20-%20Chiesa%20di%20Santa%20Maria%20Assunta%20-%20Luglio%202016.jpg?width=800","wd":"https://www.wikidata.org/wiki/Q103941675"},{"id":"wd:Q103943936","name":"chiesa di San Giorgio","lat":42.561026,"lng":13.326617,"kind":"church","img":"https://commons.wikimedia.org/wiki/Special:FilePath/Poggio%20Cancelli%20-%20panoramio.jpg?width=800","wd":"https://www.wikidata.org/wiki/Q103943936"},{"id":"wd:Q103980607","name":"chiesa di San Giovanni Battista","lat":42.530922684658,"lng":13.346554930639,"kind":"church","img":"https://commons.wikimedia.org/wiki/Special:FilePath/Mascioni%20%28Campotosto%29%20-%20Chiesa%20parrocchiale.jpg?width=800","wd":"https://www.wikidata.org/wiki/Q103980607"},{"id":"wd:Q103982273","name":"Chiesa di San Clemente","lat":42.29912,"lng":13.495858,"kind":"church","img":"https://commons.wikimedia.org/wiki/Special:FilePath/Fossa%20AQ%20-%20Chiesa%20di%20San%20Clemente%2002.JPG?width=800","wd":"https://www.wikidata.org/wiki/Q103982273"},{"id":"wd:Q103982382","name":"Santa Maria Assunta","lat":42.124858,"lng":13.271285,"kind":"church","img":"https://commons.wikimedia.org/wiki/Special:FilePath/Marano%20Marsica%20Abbazia%20Santa%20Maria%20Assunta.jpg?width=800","wd":"https://www.wikidata.org/wiki/Q103982382"},{"id":"wd:Q103982468","name":"Santi Giovanni e Paolo","lat":42.123781,"lng":13.268225,"kind":"church","img":"https://commons.wikimedia.org/wiki/Special:FilePath/Marano%20Marsica%20RuMa6.jpg?width=800","wd":"https://www.wikidata.org/wiki/Q103982468"},{"id":"wd:Q103982680","name":"Church San Sebastiano","lat":42.11507776637,"lng":13.344398562494,"kind":"church","img":"https://commons.wikimedia.org/wiki/Special:FilePath/Magliano%20de%27%20Marsi%20-%20Chiesa%20di%20San%20Sebastiano%20-%202023-09-30%2023-21-24%20001.JPG?width=800","wd":"https://www.wikidata.org/wiki/Q103982680"},{"id":"wd:Q103985380","name":"chiesa di San Martino","lat":42.272709,"lng":13.477527,"kind":"church","img":"https://commons.wikimedia.org/wiki/Special:FilePath/San%20Martino%20%28Ocre%29.jpg?width=800","wd":"https://www.wikidata.org/wiki/Q103985380"},{"id":"wd:Q103988912","name":"torre del castello","lat":42.235646278989,"lng":13.488196252338,"kind":"tower","img":"https://commons.wikimedia.org/wiki/Special:FilePath/Rocca%20di%20Cambio%20%28AQ%29%20-%20Collegiata%20di%20San%20Pietro%2009.jpg?width=800","wd":"https://www.wikidata.org/wiki/Q103988912"},{"id":"wd:Q103990599","name":"chiesa di Santa Maria Assunta","lat":42.256032,"lng":13.511555,"kind":"church","desc":"La chiesa di Santa Maria Assunta anche detta chiesa parrocchiale dell'Assunta è un edificio di culto situato a Fontavignone, frazione del comune di Rocca di Mezzo (provincia dell'Aquila).","wiki":"https://it.wikipedia.org/wiki/Chiesa_di_Santa_Maria_Assunta_(Fonteavignone%2C_Rocca_di_Mezzo)","wd":"https://www.wikidata.org/wiki/Q103990599"},{"id":"wd:Q104005184","name":"Santa Maria delle Grazie","lat":41.94214419307,"lng":13.759030552925,"kind":"church","img":"https://commons.wikimedia.org/wiki/Special:FilePath/San%20Sebastiano%20dei%20Marsi%20Santa%20Gemma.jpg?width=800","wd":"https://www.wikidata.org/wiki/Q104005184"},{"id":"wd:Q104005422","name":"chiesa di San Pancrazio","lat":41.940332,"lng":13.759146,"kind":"church","img":"https://commons.wikimedia.org/wiki/Special:FilePath/San%20Sebastiano%20Marsi%20San%20Pancrazio.jpg?width=800","wd":"https://www.wikidata.org/wiki/Q104005422"},{"id":"wd:Q104028164","name":"chiesa nuova della Madonna della Fonticella","lat":41.940162,"lng":13.409666,"kind":"church","img":"https://commons.wikimedia.org/wiki/Special:FilePath/Canistro%20Inferiore%20Madonna%20Fonticella.jpg?width=800","wd":"https://www.wikidata.org/wiki/Q104028164"},{"id":"wd:Q104028571","name":"Sant'Antonio","lat":42.009277,"lng":13.344646,"kind":"church","img":"https://commons.wikimedia.org/wiki/Special:FilePath/Corcumello%20chiesa%20SA%201.jpg?width=800","wd":"https://www.wikidata.org/wiki/Q104028571"},{"id":"wd:Q104028643","name":"San Lorenzo","lat":42.006783039988,"lng":13.348072092405,"kind":"church","img":"https://commons.wikimedia.org/wiki/Special:FilePath/Corcumello%20SL1.jpg?width=800","wd":"https://www.wikidata.org/wiki/Q104028643"},{"id":"wd:Q104028683","name":"San Giuseppe","lat":41.966125692561,"lng":13.391014013559,"kind":"church","img":"https://commons.wikimedia.org/wiki/Special:FilePath/San%20Giuseppe%20Capistrello.jpg?width=800","wd":"https://www.wikidata.org/wiki/Q104028683"},{"id":"wd:Q104028731","name":"Santa Barbara","lat":41.976848,"lng":13.406517,"kind":"church","img":"https://commons.wikimedia.org/wiki/Special:FilePath/Santa%20barbara%20capistrello%20abruzzo.jpg?width=800","wd":"https://www.wikidata.org/wiki/Q104028731"},{"id":"wd:Q104028774","name":"Madonna della Contra","lat":41.960148124505,"lng":13.37664704986,"kind":"church","img":"https://commons.wikimedia.org/wiki/Special:FilePath/Madonna%20della%20Contra.jpg?width=800","wd":"https://www.wikidata.org/wiki/Q104028774"},{"id":"wd:Q104028813","name":"San Michele Arcangelo","lat":41.956671788173,"lng":13.393414135391,"kind":"church","img":"https://commons.wikimedia.org/wiki/Special:FilePath/Pescocanale%20SMA.jpg?width=800","wd":"https://www.wikidata.org/wiki/Q104028813"},{"id":"wd:Q104030523","name":"chiesa di San Michele Arcangelo","lat":42.017405,"lng":13.282359,"kind":"church","img":"https://commons.wikimedia.org/wiki/Special:FilePath/Petrella%20Liri%20chiesa%20di%20San%20Michele.jpg?width=800","wd":"https://www.wikidata.org/wiki/Q104030523"},{"id":"wd:Q104030665","name":"San Rocco","lat":42.018882683702,"lng":13.277532632086,"kind":"church","img":"https://commons.wikimedia.org/wiki/Special:FilePath/Chiesa%20sussidiaria%20di%20San%20Rocco%20a%20Petrella%20Liri.jpg?width=800","wd":"https://www.wikidata.org/wiki/Q104030665"},{"id":"wd:Q104030802","name":"Sant'Egidio","lat":42.036426,"lng":13.246309,"kind":"church","img":"https://commons.wikimedia.org/wiki/Special:FilePath/Verrecchie%20Chiesa%20antica%20SE.jpg?width=800","wd":"https://www.wikidata.org/wiki/Q104030802"},{"id":"wd:Q104030835","name":"chiesa di Sant'Egidio Abate","lat":42.036343,"lng":13.249171,"kind":"church","img":"https://commons.wikimedia.org/wiki/Special:FilePath/Verrecchie%20Nuova%20chiesa%20SE.jpg?width=800","wd":"https://www.wikidata.org/wiki/Q104030835"},{"id":"wd:Q104350128","name":"San Rocco","lat":42.35163,"lng":14.40304,"kind":"church","img":"https://commons.wikimedia.org/wiki/Special:FilePath/Ortona%20kirche%2003.jpg?width=800","desc":"La chiesa di San Rocco è un luogo di culto cattolico di Ortona, in provincia di Chieti, sede vescovile dell'Arcidiocesi di Lanciano-Ortona.","wiki":"https://it.wikipedia.org/wiki/Chiesa_di_San_Rocco_(Ortona)","wd":"https://www.wikidata.org/wiki/Q104350128"},{"id":"wd:Q104530924","name":"antica chiesa di Santa Barbara al Forte spagnolo","lat":42.355967,"lng":13.399529,"kind":"church","desc":"La chiesa di Santa Barbara al Forte spagnolo, già chiesa di Santa Maria della Pietà, è una chiesa scomparsa dell'Aquila, anticamente situata all'interno del Forte spagnolo, nel quarto di Santa Maria.","wiki":"https://it.wikipedia.org/wiki/Chiesa_di_Santa_Barbara_al_Forte_spagnolo","wd":"https://www.wikidata.org/wiki/Q104530924"},{"id":"wd:Q104635414","name":"Santa Restituta","lat":41.72089,"lng":13.61542,"kind":"church","img":"https://commons.wikimedia.org/wiki/Special:FilePath/Chiesa%20di%20Santa%20Restituta%2C%20Sora%20%28Fr%29.jpg?width=800","desc":"La chiesa di Santa Restituta, edificio religioso di Sora, è dedicata alla venerazione di santa Restituta patrona della città. La chiesa ha origini antiche, sebbene l'edificio attuale sia stato realizzato il secolo scorso, dopo la distruzione di quello precedente di epoca barocca a causa del terremoto del 1915 che devastò l'abitato sorano.","wiki":"https://it.wikipedia.org/wiki/Chiesa_di_Santa_Restituta_(Sora)","wd":"https://www.wikidata.org/wiki/Q104635414"},{"id":"wd:Q105090805","name":"Tomb of Perseus of Macedon","lat":42.07772,"lng":13.3751,"kind":"heritage","img":"https://commons.wikimedia.org/wiki/Special:FilePath/Tomba%20di%20Perseo.JPG?width=800","wd":"https://www.wikidata.org/wiki/Q105090805"},{"id":"wd:Q105343867","name":"Santa Maria Maggiore","lat":42.10288,"lng":13.812698,"kind":"church","img":"https://commons.wikimedia.org/wiki/Special:FilePath/Raiano%20-%20Chiesa%20di%20Santa%20Maria%20Maggiore%2007.jpg?width=800","wd":"https://www.wikidata.org/wiki/Q105343867"},{"id":"wd:Q105388245","name":"Santa Maria delle Grazie","lat":42.102584,"lng":13.809751,"kind":"church","img":"https://commons.wikimedia.org/wiki/Special:FilePath/Raiano%202010%20-Madonna%20delle%20Grazie-%20by-RaBoe-201-1.jpg?width=800","wd":"https://www.wikidata.org/wiki/Q105388245"},{"id":"wd:Q105404666","name":"San Nicola di Bari","lat":41.869969,"lng":14.06652,"kind":"church","img":"https://commons.wikimedia.org/wiki/Special:FilePath/Rivisondoli1.jpg?width=800","wd":"https://www.wikidata.org/wiki/Q105404666"},{"id":"wd:Q105512316","name":"San Silvestro","lat":42.398915,"lng":13.415805,"kind":"church","img":"https://commons.wikimedia.org/wiki/Special:FilePath/Collebrincioni%20%28AQ%29%20-%20Chiesa%20di%20San%20Silvestro%2002.jpg?width=800","wd":"https://www.wikidata.org/wiki/Q105512316"},{"id":"wd:Q105604945","name":"Iuvanum Roman theater","lat":41.9972962,"lng":14.2500438,"kind":"heritage","img":"https://commons.wikimedia.org/wiki/Special:FilePath/Iuvanum%20theatre.JPG?width=800","wd":"https://www.wikidata.org/wiki/Q105604945"},{"id":"wd:Q105620522","name":"San Giustino","lat":42.353623370299,"lng":13.465385026743,"kind":"church","img":"https://commons.wikimedia.org/wiki/Special:FilePath/Paganica%20%28AQ%29%20-%20Basilica%20di%20San%20Giustino%2016.jpg?width=800","wd":"https://www.wikidata.org/wiki/Q105620522"},{"id":"wd:Q105761153","name":"Piazza Castello","lat":42.897906,"lng":13.7934194,"kind":"square","img":"https://commons.wikimedia.org/wiki/Special:FilePath/Monsampolo%20del%20Tronto%20-%20piazza%20Castello%20%281%29.jpg?width=800","wd":"https://www.wikidata.org/wiki/Q105761153"},{"id":"wd:Q106205202","name":"Cathedral of Amiternum","lat":42.399278,"lng":13.307944,"kind":"heritage","desc":"La cattedrale di Santa Maria, conosciuta anche come Santa Maria in civitate, era la cattedrale della diocesi di Amiternum, antica sede episcopale della città sabina di Amiternum, nel territorio dell'attuale comune dell'Aquila.","wiki":"https://it.wikipedia.org/wiki/Cattedrale_di_Santa_Maria_(Amiternum)","wd":"https://www.wikidata.org/wiki/Q106205202"},{"id":"wd:Q106464645","name":"Santissima Trinità","lat":42.325073,"lng":13.5921,"kind":"church","img":"https://commons.wikimedia.org/wiki/Special:FilePath/Barisciano%20-%20Chiesa%20della%20Santissima%20Trinit%C3%A0%2001.jpg?width=800","wd":"https://www.wikidata.org/wiki/Q106464645"},{"id":"wd:Q106611042","name":"Necropoli di Casal del Dolce","lat":41.7442132,"lng":13.1629782,"kind":"heritage","desc":"L'area archeologica di Casal del Dolce ha dato alla luce una necropoli ed un abitato del neolitico (VI millennio a.C.), vicino all'abitato di Anagni in provincia di Frosinone.","wiki":"https://it.wikipedia.org/wiki/Area_archeologica_di_Casal_del_Dolce","wd":"https://www.wikidata.org/wiki/Q106611042"},{"id":"wd:Q106611910","name":"San Rocco","lat":42.344134,"lng":13.644048,"kind":"church","img":"https://commons.wikimedia.org/wiki/Special:FilePath/San%20Stefano%20di%20Sessanio%202011-by-RaBoe-09.jpg?width=800","wd":"https://www.wikidata.org/wiki/Q106611910"},{"id":"wd:Q106612257","name":"chiesa di Santa Maria in Ruvo","lat":42.343579,"lng":13.644547,"kind":"church","img":"https://commons.wikimedia.org/wiki/Special:FilePath/Santo%20Stefano%20di%20Sessanio%202005%20by-RaBoe%2006.jpg?width=800","wd":"https://www.wikidata.org/wiki/Q106612257"},{"id":"wd:Q106774344","name":"San Costantino e Sant'Elena","lat":42.354702,"lng":14.138044,"kind":"church","img":"https://commons.wikimedia.org/wiki/Special:FilePath/Chieti%20Scalo%20-%20Chiesa%20di%20San%20Costantino%20e%20Sant%27Elena%2001.jpg?width=800","wd":"https://www.wikidata.org/wiki/Q106774344"},{"id":"wd:Q107063823","name":"Roman theater of Ferentinum","lat":41.6908658,"lng":13.2535667,"kind":"heritage","img":"https://commons.wikimedia.org/wiki/Special:FilePath/Teatro%20romano%20-%20panoramio.jpg?width=800","wd":"https://www.wikidata.org/wiki/Q107063823"},{"id":"wd:Q107210991","name":"Piazza Luigi Rizzo","lat":42.462943,"lng":14.227045,"kind":"square","img":"https://commons.wikimedia.org/wiki/Special:FilePath/Pescara%20-%20Piazza%20Luigi%20Rizzo%20%28Borgo%20Marino%20Sud%29%2003.jpg?width=800","wd":"https://www.wikidata.org/wiki/Q107210991"},{"id":"wd:Q107353352","name":"Museo dell'intrattenimento elettronico","lat":42.019071,"lng":13.430833,"kind":"museum","img":"https://commons.wikimedia.org/wiki/Special:FilePath/Museo%20dell%27intrattenimento%20elettronico.jpg?width=800","desc":"Il Museo dell'intrattenimento elettronico è un museo situato ad Avezzano (AQ), in Abruzzo, che ospita e preserva a fini di studio, educazione e diletto la più vasta esposizione europea di computer, console, flipper, cabinati, videogiochi arcade, dispositivi e supporti realizzati dal 1971 al 2000 con l'attenzione rivolta alle evoluzioni successive di un settore in continua attività.","wiki":"https://it.wikipedia.org/wiki/Museo_dell'intrattenimento_elettronico","wd":"https://www.wikidata.org/wiki/Q107353352"},{"id":"wd:Q107530889","name":"Imago Museum","lat":42.47003,"lng":14.20639,"kind":"attraction","img":"https://commons.wikimedia.org/wiki/Special:FilePath/Palazzo%20dell%27Ex%20Banco%20di%20Napoli%20di%20Pescara.jpg?width=800","desc":"Imago Museum is a modern and impressionist art museum in Pescara, Italy, inaugurated in 2021.\nCommissioned by the Pescarabruzzo Foundation, a foundation of banking origin that represents the historical continuation of the Banca Caripe, the museum is located in the premises of the former city headquarters of the Banco di Napoli, a rationalist building with three levels, acquired by the institution in 2013.","wiki":"https://en.wikipedia.org/wiki/Imago_Museum","wd":"https://www.wikidata.org/wiki/Q107530889"},{"id":"wd:Q108028168","name":"San Pietro","lat":42.48912,"lng":13.10238,"kind":"church","img":"https://commons.wikimedia.org/wiki/Special:FilePath/Chiesa%20San%20Pietro%20Laculo.jpg?width=800","wd":"https://www.wikidata.org/wiki/Q108028168"},{"id":"wd:Q108129428","name":"Palazzo Ferrante","lat":41.886666666667,"lng":13.4725,"kind":"palace","img":"https://commons.wikimedia.org/wiki/Special:FilePath/Palazzo%20Ferrante%20Abruzzo.jpg?width=800","desc":"Palazzo Ferrante è un edificio di rilevanza storica e artistica situato a Civita d'Antino (AQ) in Abruzzo. Tra l'Ottocento e il Novecento ha ospitato i viaggiatori del Grand Tour e i pittori scandinavi della scuola estiva fondata da Kristian Zahrtmann.","wiki":"https://it.wikipedia.org/wiki/Palazzo_Ferrante","wd":"https://www.wikidata.org/wiki/Q108129428"},{"id":"wd:Q108180155","name":"Santa Maria della Misericordia","lat":42.804907952279,"lng":13.680940582555,"kind":"church","img":"https://commons.wikimedia.org/wiki/Special:FilePath/Chiesa%20di%20Santa%20Maria%20della%20Misericordia%20-%20Faraone%20%28TE%29.jpg?width=800","wd":"https://www.wikidata.org/wiki/Q108180155"},{"id":"wd:Q108181413","name":"Parco fluviale delle Acquevive","lat":42.017185848982,"lng":14.168117663285,"kind":"park","img":"https://commons.wikimedia.org/wiki/Special:FilePath/Taranta%20Peligna%20-%20Parco%20Fluviale%20delle%20Acquevive%20%281%29.jpg?width=800","wd":"https://www.wikidata.org/wiki/Q108181413"},{"id":"wd:Q108293122","name":"Castello Colonna-Del Drago","lat":42.060963,"lng":13.000785,"kind":"castle","img":"https://commons.wikimedia.org/wiki/Special:FilePath/Castello%20Colonna.jpg?width=800","desc":"Il Castello Colonna-Del Drago è un castello situato a Riofreddo.\nEretto nel XI secolo dai Colonna che furono i primi feudatari, il castello venne edificato sulle fondamenta di un avamposto romano a guardia della antica Via Valeria.","wiki":"https://it.wikipedia.org/wiki/Castello_Colonna-Del_Drago","wd":"https://www.wikidata.org/wiki/Q108293122"},{"id":"wd:Q108320113","name":"Monumento ai caduti","lat":42.099991910045,"lng":13.208102854086,"kind":"monument","img":"https://commons.wikimedia.org/wiki/Special:FilePath/Monumento%20ai%20caduti%20Sante%20Marie.jpg?width=800","wd":"https://www.wikidata.org/wiki/Q108320113"},{"id":"wd:Q108320118","name":"Monumento ai caduti","lat":42.12156,"lng":13.2269,"kind":"monument","img":"https://commons.wikimedia.org/wiki/Special:FilePath/Santo%20Stefano%20monumento%20ai%20caduti%20k4.jpg?width=800","wd":"https://www.wikidata.org/wiki/Q108320118"},{"id":"wd:Q108320119","name":"Monumento ai caduti","lat":42.15579,"lng":13.18591,"kind":"monument","img":"https://commons.wikimedia.org/wiki/Special:FilePath/Val%20dei%20Varri%20monumento%20caduti%20guerra.jpg?width=800","wd":"https://www.wikidata.org/wiki/Q108320119"},{"id":"wd:Q108320121","name":"Monumento ai caduti","lat":42.1057431603,"lng":13.250484437832,"kind":"monument","img":"https://commons.wikimedia.org/wiki/Special:FilePath/Monumento%20ai%20caduti%20Scanzano%20dei%20Marsi.jpg?width=800","wd":"https://www.wikidata.org/wiki/Q108320121"},{"id":"wd:Q108320122","name":"Monumento ai caduti","lat":42.12868,"lng":13.20321,"kind":"monument","img":"https://commons.wikimedia.org/wiki/Special:FilePath/Castelvecchio%20SM%20monumento%20caduti.jpg?width=800","wd":"https://www.wikidata.org/wiki/Q108320122"},{"id":"wd:Q108417314","name":"San Giacomo","lat":42.02498651772,"lng":14.259639634538,"kind":"church","img":"https://commons.wikimedia.org/wiki/Special:FilePath/San%20Giacomo%20Torricella%20Peligna.jpg?width=800","desc":"La chiesa di San Giacomo Apostolo è la parrocchiale di Torricella Peligna, in provincia di Chieti e arcidiocesi di Chieti-Vasto; fa parte della zona pastorale di Casoli.","wiki":"https://it.wikipedia.org/wiki/Chiesa_di_San_Giacomo_Apostolo_(Torricella_Peligna)","wd":"https://www.wikidata.org/wiki/Q108417314"},{"id":"wd:Q108419547","name":"Sant'Antonio da Padova","lat":42.004796614421,"lng":14.324740015588,"kind":"church","img":"https://commons.wikimedia.org/wiki/Special:FilePath/Chiesa%20di%20Sant%27Antonio%20da%20Padova%20%28Pennadomo%29%20%282%29.jpg?width=800","wd":"https://www.wikidata.org/wiki/Q108419547"},{"id":"wd:Q108494196","name":"Piazza Martiri del 4 aprile","lat":42.512291,"lng":13.135692,"kind":"square","img":"https://commons.wikimedia.org/wiki/Special:FilePath/Piazza%20Martiri%20del%204%20aprile.jpg?width=800","wd":"https://www.wikidata.org/wiki/Q108494196"},{"id":"wd:Q110239443","name":"Temple of Iuno Moneta at Signia","lat":41.696925,"lng":13.024731,"kind":"heritage","img":"https://commons.wikimedia.org/wiki/Special:FilePath/Remains%20of%20a%20temple%20at%20Signia%20-%20Dodwell%20Edward%20-%201834.jpg?width=800","wd":"https://www.wikidata.org/wiki/Q110239443"},{"id":"wd:Q110473859","name":"San Bartolomeo","lat":42.65822117804,"lng":13.70445079562,"kind":"church","img":"https://commons.wikimedia.org/wiki/Special:FilePath/Chiesa%20di%20San%20Bartolomeo%20Teramo%20-%20Facciata.jpg?width=800","desc":"La chiesa di San Bartolomeo è un luogo di culto cattolico edificato nel centro storico della città di Teramo.\nApre la sua facciata, stretta tra le case, in via del Teatro Antico, nelle adiacenze dei ruderi del Teatro romano ed appartiene al territorio della locale parrocchia del Carmine nella diocesi di Teramo-Atri.","wiki":"https://it.wikipedia.org/wiki/Chiesa_di_San_Bartolomeo_(Teramo)","wd":"https://www.wikidata.org/wiki/Q110473859"},{"id":"wd:Q110656099","name":"San Pancrazio","lat":42.218255044333,"lng":13.640823654956,"kind":"church","img":"https://commons.wikimedia.org/wiki/Special:FilePath/Tione%20degli%20Abruzzi%20-%20Chiesa%20di%20San%20Pancrazio%2003.jpg?width=800","wd":"https://www.wikidata.org/wiki/Q110656099"},{"id":"wd:Q110659059","name":"Santa Lucia","lat":42.181222222222,"lng":13.663805555556,"kind":"church","img":"https://commons.wikimedia.org/wiki/Special:FilePath/Tione%20degli%20Abruzzi%20-%20Chiesa%20di%20Santa%20Lucia%2005.jpg?width=800","wd":"https://www.wikidata.org/wiki/Q110659059"},{"id":"wd:Q110663244","name":"San Gaetano","lat":42.183027917906,"lng":13.667832659373,"kind":"church","img":"https://commons.wikimedia.org/wiki/Special:FilePath/Tione%20degli%20Abruzzi%20-%20Chiesa%20di%20San%20Gaetano%2001.jpg?width=800","wd":"https://www.wikidata.org/wiki/Q110663244"},{"id":"wd:Q110663341","name":"Santa Maria della Ruota","lat":42.179526467488,"lng":13.67192659877,"kind":"church","img":"https://commons.wikimedia.org/wiki/Special:FilePath/Tione%20degli%20Abruzzi%20-%20Chiesa%20di%20Santa%20Maria%20della%20Ruota%2002.jpg?width=800","wd":"https://www.wikidata.org/wiki/Q110663341"},{"id":"wd:Q110751870","name":"Santa Maria della Concezione","lat":42.761361111111,"lng":13.412027777778,"kind":"church","img":"https://commons.wikimedia.org/wiki/Special:FilePath/Acquasanta%20Terme%20-%20Chiesa%20di%20Santa%20Maria%20della%20Concezione%2004.jpg?width=800","wd":"https://www.wikidata.org/wiki/Q110751870"},{"id":"wd:Q111273838","name":"Piazza Gabriele Rossetti","lat":42.111140739203,"lng":14.707966286614,"kind":"square","img":"https://commons.wikimedia.org/wiki/Special:FilePath/Vasto%202009%20069%20%28RaBoe%29.jpg?width=800","wd":"https://www.wikidata.org/wiki/Q111273838"},