[{"id":"osm:node/1027965774","name":"Tempio del Belvedere","lat":42.722529,"lng":12.119888,"kind":"heritage","img":"https://commons.wikimedia.org/wiki/Special:FilePath/Orvieto_Tempio_Etrusco_Del_Belvedere.JPG?width=800","desc":"Il tempio del Belvedere è un tempio etrusco ubicato a Orvieto, nei pressi del pozzo di San Patrizio.","wiki":"https://it.wikipedia.org/wiki/Tempio_del_Belvedere"},{"id":"osm:node/11681306448","name":"Biblioteca del Monte","lat":43.121378,"lng":12.381468,"kind":"attraction","img":"https://commons.wikimedia.org/wiki/Special:FilePath/Biblioteca_del_Monte_OFM_a_Monteripido.jpg?width=800","desc":"La Biblioteca di San Francesco del Monte, o semplicemente Biblioteca del Monte, è la biblioteca storica del Convento di San Francesco del Monte (Monteripido) a Perugia.\nLa biblioteca è nata per servire le necessità dei frati francescani coinvolti nello Studium Generale di Monteripido ma anche a servizio della città di Perugia e, in particolare, dell’Università degli Studi di Perugia.","wiki":"https://it.wikipedia.org/wiki/Biblioteca_del_Monte"},{"id":"osm:node/11971704285","name":"Municipio di Spoleto","lat":42.734346,"lng":12.738204,"kind":"attraction","img":"https://commons.wikimedia.org/wiki/Special:FilePath/Palazzo_Comunale-_Esterno.jpg?width=800","desc":"Il Palazzo comunale di Spoleto si trova a metà strada fra il foro, attuale piazza del Mercato, e piazza del Duomo, in una zona (nel medioevo chiamata Vaita Palazzo) dove fin dall'antichità sorgevano case gentilizie, dimore private o di rappresentanza. Le sue fondazioni poggiano in parte sull'area della Casa romana scoperta da Giuseppe Sordini nel 1885.","wiki":"https://it.wikipedia.org/wiki/Palazzo_Comunale_(Spoleto)","wd":"https://www.wikidata.org/wiki/Q18578917"},{"id":"osm:node/11974148959","name":"Roman bridge, Località Casenove","lat":43.350375,"lng":12.723135,"kind":"heritage","img":"https://commons.wikimedia.org/wiki/Special:FilePath/Villa_Scirca_panorama_valle.jpg?width=800","desc":"Villa Scirca è una frazione del comune di Sigillo (PG).\nSecondo i dati del censimento Istat 2001, gli abitanti sono 102.","wiki":"https://it.wikipedia.org/wiki/Villa_Scirca","wd":"https://www.wikidata.org/wiki/Q55138899"},{"id":"osm:node/12323204904","name":"Necropoli dei bambini","lat":42.547857,"lng":12.308855,"kind":"heritage","img":"https://commons.wikimedia.org/wiki/Special:FilePath/Lugnansi.JPG?width=800","desc":"La necropoli dei bambini di Lugnano, sulla sinistra idrografica della valle del Tevere, è un eccezionale ritrovamento archeologico di epoca tardo romana, consistente in una numerosa serie di sepolture che, sulla base delle ceramiche ritrovate, sono state datate intorno alla metà del V secolo.\nUna delle tante particolarità, da cui deriva il nome attribuito, dipende dal fatto che le sepolture riguardano esclusivamente corpi di bambini (in maggioranza neonati) e feti abortivi, in numero, rispettivamente, di 25 e 22.","wiki":"https://it.wikipedia.org/wiki/Necropoli_dei_bambini_di_Lugnano","wd":"https://www.wikidata.org/wiki/Q3874138"},{"id":"osm:node/1308318750","name":"Calamita Cosmica","lat":42.958082,"lng":12.708114,"kind":"attraction","img":"https://commons.wikimedia.org/wiki/Special:FilePath/Foligno%2C_ss._annunziata_02.JPG?width=800","desc":"La Calamita Cosmica è una scultura di Gino De Dominicis, realizzata nel 1988 e conservata nella ex chiesa della Santissima Trinità in Annunziata a Foligno (Umbria).","wiki":"https://it.wikipedia.org/wiki/Calamita_cosmica","wd":"https://www.wikidata.org/wiki/Q28670348"},{"id":"osm:node/13974014409","name":"Casa Menotti","lat":42.734781,"lng":12.739481,"kind":"museum","img":"https://commons.wikimedia.org/wiki/Special:FilePath/Casa_Menotti%2C_Spoleto_-_Centro_di_Documentazione_del_Festival_dei_Due_Mondi.JPG?width=800","desc":"Casa Menotti, è un palazzo cinquecentesco di Spoleto, situato in piazza del Duomo.\nÈ stata l'abitazione di Giancarlo Menotti, compositore, sceneggiatore e ideatore del Festival dei Due Mondi, acquistata nel 2010, dopo la sua morte, dalla \"Fondazione Monini\".","wiki":"https://it.wikipedia.org/wiki/Casa_Menotti","wd":"https://www.wikidata.org/wiki/Q16336141"},{"id":"osm:node/1411111321","name":"Fuseum","lat":43.134824,"lng":12.346605,"kind":"museum","img":"https://commons.wikimedia.org/wiki/Special:FilePath/Ingresso_Fuseum.jpg?width=800","desc":"Il Fuseum è la casa museo che raccoglie le opere dell'artista Brajo Fuso. Si trova a Perugia, sulla collina di Montemalbe.","wiki":"https://it.wikipedia.org/wiki/Fuseum","wd":"https://www.wikidata.org/wiki/Q16557938"},{"id":"osm:node/1411736916","name":"Pasticceria Sandri","lat":43.111286,"lng":12.388745,"kind":"attraction","img":"https://commons.wikimedia.org/wiki/Special:FilePath/Caff%C3%A9_Sandri_Perugia.JPG?width=800","desc":"La Pasticceria Sandri è un locale storico della città di Perugia, situato lungo Corso Vannucci, al numero 32. Fa parte dei locali storici d'Italia.","wiki":"https://it.wikipedia.org/wiki/Pasticceria_Sandri","wd":"https://www.wikidata.org/wiki/Q16587500"},{"id":"osm:node/1727486267","name":"Porta Marzia","lat":43.108261,"lng":12.388818,"kind":"castle","img":"https://commons.wikimedia.org/wiki/Special:FilePath/199808-Porta-Marzia-001.jpg?width=800","desc":"La Porta Marzia è una porta cittadina della cinta muraria etrusca della città di Perugia e si trova in via Marzia.","wiki":"https://it.wikipedia.org/wiki/Porta_Marzia","wd":"https://www.wikidata.org/wiki/Q3398702"},{"id":"osm:node/1775876750","name":"Fonte di piazza","lat":42.734322,"lng":12.737504,"kind":"attraction","img":"https://commons.wikimedia.org/wiki/Special:FilePath/Fonte_di_piazza._Spoleto.jpg?width=800","desc":"La Fontana di piazza del Mercato, nota anche come Fonte di Piazza, si trova a Spoleto, nella omonima piazza un tempo denominata piazza del Foro, centro di scambi e commercio in epoca romana, e oggi cuore del centro storico.","wiki":"https://it.wikipedia.org/wiki/Fontana_di_piazza_del_Mercato","wd":"https://www.wikidata.org/wiki/Q19828555"},{"id":"osm:node/1854296141","name":"Battaglia sul Trasimeno","lat":43.189111,"lng":12.049401,"kind":"attraction","wiki":"https://it.wikipedia.org/wiki/Battaglia_sul_Trasimeno"},{"id":"osm:node/2091347283","name":"Centro della Scienza P.O.S.T.","lat":43.11442,"lng":12.392284,"kind":"museum","desc":"Il POST, acronimo di Perugia Officina per la Scienza e la Tecnologia, è il museo interattivo dedicato alla cultura scientifica della città di Perugia.","wiki":"https://it.wikipedia.org/wiki/Perugia_Officina_per_la_Scienza_e_la_Tecnologia","wd":"https://www.wikidata.org/wiki/Q17640548"},{"id":"osm:node/2151540144","name":"Casa romana","lat":42.734412,"lng":12.737999,"kind":"museum","img":"https://commons.wikimedia.org/wiki/Special:FilePath/-_Casa_Romana_Pozzo_dell%27Atrio.jpg?width=800","desc":"La Casa romana di Spoleto, datata all'inizio del I secolo d.C., è una abitazione signorile scoperta dall'archeologo spoletino Giuseppe Sordini negli anni 1885-1886 e scavata a più riprese fino al 1914. Si trova in parte sotto la piazza del Municipio e in parte sotto il Palazzo comunale di cui occupa le fondamenta.","wiki":"https://it.wikipedia.org/wiki/Casa_romana_(Spoleto)","wd":"https://www.wikidata.org/wiki/Q18709981"},{"id":"osm:node/2311544649","name":"Fontana del Mascherone","lat":42.733847,"lng":12.739815,"kind":"attraction","img":"https://commons.wikimedia.org/wiki/Special:FilePath/Fontana_del_Mascherone_%28Spoleto%29.jpg?width=800","desc":"La fontana del Mascherone, nota anche come fonte di San Simone, è una fontana di Spoleto, in piazza Bernardino Campello, addossata al muro in prossimità della duecentesca ex chiesa dei Santi Simone e Giuda.","wiki":"https://it.wikipedia.org/wiki/Fontana_del_Mascherone_(Spoleto)","wd":"https://www.wikidata.org/wiki/Q19849017"},{"id":"osm:node/2386466793","name":"Museo civico di Palazzo della Penna-Centro di Cultura Contemporanea","lat":43.107816,"lng":12.389462,"kind":"museum","img":"https://commons.wikimedia.org/wiki/Special:FilePath/Palazzo_della_Penna_2023.jpg?width=800","desc":"Il Palazzo della Penna è situato in via Podiani, 11 a Perugia ed è sede del Museo civico di Palazzo della Penna-Centro di Cultura Contemporanea, della Deputazione di Storia Patria per l'Umbria, dell'Assessorato alla Cultura e di altri Uffici comunali.","wiki":"https://it.wikipedia.org/wiki/Palazzo_della_Penna"},{"id":"osm:node/2386561246","name":"Galleria d'arte contemporanea della Pro Civitate Christiana","lat":43.070999,"lng":12.611071,"kind":"museum","img":"https://commons.wikimedia.org/wiki/Special:FilePath/Galleria_Sala_B-Galleria_Arte_Contemporanea-PCC-Assisi.jpg?width=800","desc":"La Galleria d'Arte Contemporanea è una delle raccolte dell'Osservatorio cristiano della Pro Civitate Christiana (PCC) di Assisi.  L’Osservatorio, edificio di particolare interesse architettonico progettato dall'architetto Pina Ciampani nel 1961, ospita una Galleria d'arte, una Biblioteca e una Fonoteca e intendeva documentare la figura di Cristo nel mondo culturale antico e contemporaneo.","wiki":"https://it.wikipedia.org/wiki/Galleria_d'arte_contemporanea_(Assisi)","wd":"https://www.wikidata.org/wiki/Q3757716"},{"id":"osm:node/2608876319","name":"Resti Castello di Pomonte","lat":42.940494,"lng":12.514951,"kind":"heritage","img":"https://commons.wikimedia.org/wiki/Special:FilePath/Pomonte_rocca.JPG?width=800","desc":"Pomonte è una frazione del comune di Gualdo Cattaneo, in provincia di Perugia.\nIl borgo si trova a 461 m s.l.m., sulle colline che separano la valle del torrente Puglia dalla valle Umbra.","wiki":"https://it.wikipedia.org/wiki/Pomonte_(Gualdo_Cattaneo)","wd":"https://www.wikidata.org/wiki/Q3907829"},{"id":"osm:node/2609209528","name":"Cappella di San Severo","lat":43.112881,"lng":12.392241,"kind":"museum","img":"https://commons.wikimedia.org/wiki/Special:FilePath/Raffaello%2C_trinit%C3%A0_%281505-1508%29_e_santi_del_perugino_%281521%29%2C_01.jpg?width=800","desc":"La cappella di San Severo fa parte del complesso conventuale camaldolese attiguo alla chiesa di San Severo a Perugia. Oggi è un piccolo museo dedicato all'affresco della Trinità e santi (175x389 cm) di Raffaello e Perugino, databile al 1505-1508 circa (intervento di Raffaello) e al 1521 (intervento di Perugino).","wiki":"https://it.wikipedia.org/wiki/Cappella_di_San_Severo","wd":"https://www.wikidata.org/wiki/Q2957143"},{"id":"osm:node/2610886567","name":"Museo delle mummie","lat":42.618421,"lng":12.795003,"kind":"museum","img":"https://commons.wikimedia.org/wiki/Special:FilePath/MUSEOmUMMIE.JPG?width=800","desc":"Il Museo delle mummie è un museo situato a Ferentillo (in provincia di Terni) che espone delle antiche mummie degli abitanti del paese.\nIl museo venne creato alla fine del XIX secolo, quando scavi effettuati nella cripta della vecchia chiesa del paese portarono alla luce numerosi corpi mummificati, alcuni dei quali con gli abiti ben conservati.","wiki":"https://it.wikipedia.org/wiki/Museo_delle_mummie","wd":"https://www.wikidata.org/wiki/Q3868149"},{"id":"osm:node/2622319811","name":"Basilica inferiore di San Francesco d'Assisi","lat":43.074591,"lng":12.606046,"kind":"church","img":"https://commons.wikimedia.org/wiki/Special:FilePath/%22_Assisi_%22_0000.jpg?width=800","desc":"La basilica inferiore di San Francesco d'Assisi è una delle due strutture che compongono la basilica di San Francesco ad Assisi, assieme con la basilica superiore. Dotata di cripta (in cui si trovano le spoglie del santo e dei suoi più stretti confratelli) e affrescata splendidamente da alcuni dei più grandi artisti del Trecento italiano, vi si accede dalla piazza inferiore di San Francesco, attraverso un portale che immette, a causa della pendenza del colle, nel lato sinistro della navata.","wiki":"https://it.wikipedia.org/wiki/Basilica_inferiore_di_San_Francesco_d'Assisi","wd":"https://www.wikidata.org/wiki/Q3635780"},{"id":"osm:node/2622319814","name":"Basilica superiore di San Francesco d'Assisi","lat":43.074784,"lng":12.606132,"kind":"church","img":"https://commons.wikimedia.org/wiki/Special:FilePath/Basilica_San_Francesco_Assisi_02.JPG?width=800","desc":"La basilica superiore di San Francesco d'Assisi è una delle due strutture che compongono la basilica di San Francesco ad Assisi, assieme alla basilica inferiore. Vi si accede dalla piazza superiore di San Francesco d'Assisi.","wiki":"https://it.wikipedia.org/wiki/Basilica_superiore_di_San_Francesco_d'Assisi","wd":"https://www.wikidata.org/wiki/Q3635787"},{"id":"osm:node/2942241122","name":"Chapel of San Brizio","lat":42.71694,"lng":12.113937,"kind":"church","img":"https://commons.wikimedia.org/wiki/Special:FilePath/L%27apice_del_Rinascimento.jpg?width=800","desc":"La cappella di San Brizio, o cappella Nova, si trova nel transetto destro del duomo di Orvieto. È celebre per il ciclo di affreschi con Storie degli ultimi giorni, avviato nelle vele da Beato Angelico e Benozzo Gozzoli nel 1447 e completato da Luca Signorelli nel 1499-1502.","wiki":"https://it.wikipedia.org/wiki/Cappella_di_San_Brizio","wd":"https://www.wikidata.org/wiki/Q3657553"},{"id":"osm:node/2944119126","name":"Pozzo Etrusco","lat":43.112485,"lng":12.389918,"kind":"attraction","img":"https://commons.wikimedia.org/wiki/Special:FilePath/Pozzo_etrusco-_passerella.jpg?width=800","desc":"Il Pozzo etrusco, noto anche come \"Pozzo Sorbello\" dal nome della famiglia tuttora proprietaria del palazzo che ingloba la struttura, si trova a Perugia, nel centro storico della città. L'accesso all'ambiente ipogeo, attualmente aperto al pubblico come museo, è dato, al civico 18 di piazza Danti, da un passaggio coperto che conduce agli ambienti sotterranei di Palazzo Sorbello.","wiki":"https://it.wikipedia.org/wiki/Pozzo_etrusco","wd":"https://www.wikidata.org/wiki/Q16591840"},{"id":"osm:node/3040221134","name":"Cisterne romane di Collazzone","lat":42.931414,"lng":12.398133,"kind":"heritage","img":"https://commons.wikimedia.org/wiki/Special:FilePath/CollepepeCollazzone1.jpg?width=800","desc":"Collepepe è una frazione del comune di Collazzone (PG).\nCon 1 056 abitanti è il centro più popoloso del territorio comunale.","wiki":"https://it.wikipedia.org/wiki/Collepepe","wd":"https://www.wikidata.org/wiki/Q1951859"},{"id":"osm:node/3765145377","name":"Domus di Sesto Properzio","lat":43.069618,"lng":12.614646,"kind":"heritage","img":"https://commons.wikimedia.org/wiki/Special:FilePath/Prop_and_Cynth.jpg?width=800","desc":"Sesto Aurelio Properzio (Assisi o Spello, 47 a.C. circa – Roma, dopo il 16 a.C.) è stato un poeta romano.","wiki":"https://it.wikipedia.org/wiki/Sesto_Properzio","wd":"https://www.wikidata.org/wiki/Q8827"},{"id":"osm:node/4217641389","name":"Museo delle miniere di Morgnano","lat":42.769439,"lng":12.696367,"kind":"museum","img":"https://commons.wikimedia.org/wiki/Special:FilePath/Le_miniere_di_Morgnano.jpg?width=800","desc":"Nelle Miniere di Spoleto, in attività da marzo 1881 a ottobre 1961, si estraeva lignite. Erano dislocate in varie frazioni di Spoleto; il centro dell'area estrattiva si trovava a Morgnano, altri cantieri erano a Santa Croce, San Silvestro, Sant'Angelo in Mercole e Uncinano.","wiki":"https://it.wikipedia.org/wiki/Miniere_di_Spoleto"},{"id":"osm:node/4219719435","name":"Sant'Angelo di Panzo","lat":43.057744,"lng":12.639859,"kind":"church","desc":"Sant'Angelo in Panzo è un convento costruito attorno al X secolo ad Assisi sulle rovine di un insediamento romano accanto ad una sorgente millenaria che ha dato e dà acqua ad Assisi attraverso cunicoli scavati nella roccia, parzialmente ancora visibili.\nÈ stato il primo convento di Santa Chiara che, secondo la tradizione, compì qui il suo primo miracolo.","wiki":"https://it.wikipedia.org/wiki/Convento_di_Sant'Angelo_di_Panzo","wd":"https://www.wikidata.org/wiki/Q3689593"},{"id":"osm:node/4312614186","name":"Teodelapio","lat":42.747654,"lng":12.736441,"kind":"attraction","img":"https://commons.wikimedia.org/wiki/Special:FilePath/Alexander_Calder_1947_-_Photo_by_Carl_Van_Vechten.jpg?width=800","desc":"Teodelapio è la prima e unica scultura monumentale di Alexander Calder in Italia. Si trova a Spoleto ed è stata realizzata e donata alla città in occasione della mostra open air intitolata Sculture in città, ideata da Giovanni Carandente per il V Festival dei Due Mondi nel 1962.","wiki":"https://it.wikipedia.org/wiki/Teodelapio_(Alexander_Calder)","wd":"https://www.wikidata.org/wiki/Q3983835"},{"id":"osm:node/4582883534","name":"Torre del Moro","lat":42.718466,"lng":12.110584,"kind":"attraction","wiki":"https://it.wikipedia.org/wiki/Palazzi_medievali_di_Orvieto"},{"id":"osm:node/4714677628","name":"Colonna del viaggiatore","lat":42.741183,"lng":12.738473,"kind":"attraction","img":"https://commons.wikimedia.org/wiki/Special:FilePath/Piazza_del_Comune_di_Spoleto.jpg?width=800","desc":"Sculture nella città è stata una mostra/allestimento a cielo aperto che ha visto la città di Spoleto trasformata in \"Città Museo\" nell'estate del 1962, nell'ambito della V edizione del Festival dei Due Mondi. Costituisce uno degli episodi più salienti della scultura internazionale del XX secolo.","wiki":"https://it.wikipedia.org/wiki/Sculture_nella_citt%C3%A0","wd":"https://www.wikidata.org/wiki/Q16601107"},{"id":"osm:node/4714702327","name":"Colloquio spoletino","lat":42.736214,"lng":12.736183,"kind":"attraction","img":"https://commons.wikimedia.org/wiki/Special:FilePath/Piazza_del_Comune_di_Spoleto.jpg?width=800","desc":"Sculture nella città è stata una mostra/allestimento a cielo aperto che ha visto la città di Spoleto trasformata in \"Città Museo\" nell'estate del 1962, nell'ambito della V edizione del Festival dei Due Mondi. Costituisce uno degli episodi più salienti della scultura internazionale del XX secolo.","wiki":"https://it.wikipedia.org/wiki/Sculture_nella_citt%C3%A0","wd":"https://www.wikidata.org/wiki/Q16601107"},{"id":"osm:node/4714705198","name":"Spoleto 1962","lat":42.73427,"lng":12.738182,"kind":"attraction","img":"https://commons.wikimedia.org/wiki/Special:FilePath/Piazza_del_Comune_di_Spoleto.jpg?width=800","desc":"Sculture nella città è stata una mostra/allestimento a cielo aperto che ha visto la città di Spoleto trasformata in \"Città Museo\" nell'estate del 1962, nell'ambito della V edizione del Festival dei Due Mondi. Costituisce uno degli episodi più salienti della scultura internazionale del XX secolo.","wiki":"https://it.wikipedia.org/wiki/Sculture_nella_citt%C3%A0","wd":"https://www.wikidata.org/wiki/Q16601107"},{"id":"osm:node/4714707511","name":"Stranger III","lat":42.734886,"lng":12.739146,"kind":"attraction","img":"https://commons.wikimedia.org/wiki/Special:FilePath/Piazza_del_Comune_di_Spoleto.jpg?width=800","desc":"Sculture nella città è stata una mostra/allestimento a cielo aperto che ha visto la città di Spoleto trasformata in \"Città Museo\" nell'estate del 1962, nell'ambito della V edizione del Festival dei Due Mondi. Costituisce uno degli episodi più salienti della scultura internazionale del XX secolo.","wiki":"https://it.wikipedia.org/wiki/Sculture_nella_citt%C3%A0","wd":"https://www.wikidata.org/wiki/Q16601107"},{"id":"osm:node/4714712557","name":"Il dono di Icaro","lat":42.727768,"lng":12.735338,"kind":"attraction","img":"https://commons.wikimedia.org/wiki/Special:FilePath/Piazza_del_Comune_di_Spoleto.jpg?width=800","desc":"Sculture nella città è stata una mostra/allestimento a cielo aperto che ha visto la città di Spoleto trasformata in \"Città Museo\" nell'estate del 1962, nell'ambito della V edizione del Festival dei Due Mondi. Costituisce uno degli episodi più salienti della scultura internazionale del XX secolo.","wiki":"https://it.wikipedia.org/wiki/Sculture_nella_citt%C3%A0","wd":"https://www.wikidata.org/wiki/Q16601107"},{"id":"osm:node/4846519098","name":"Fontanella di via del Trivio","lat":42.737762,"lng":12.736198,"kind":"attraction","desc":"Le fontane di Spoleto sono circa cinquanta: alcune sono dislocate fuori le mura cittadine, altre, in maggior numero, sono concentrate nel centro storico, nelle vie, nelle piazze, all'interno di alcuni palazzi storici.","wiki":"https://it.wikipedia.org/wiki/Fontane_di_Spoleto%23Fontanella_via_del_Trivio","wd":"https://www.wikidata.org/wiki/Q19939011"},{"id":"osm:node/5002962797","name":"Lex spoletina","lat":42.723738,"lng":12.750164,"kind":"monument","img":"https://commons.wikimedia.org/wiki/Special:FilePath/Riproduzione_della_Lex_Luci_Spoletina_all%27interno_del_Bosco_sacro_di_Monteluco_di_Spoleto.JPG?width=800","desc":"La Lex spoletina o Lex luci spoletina è un documento epigrafico (catalogato: Lex spoletina CIL, XI, 4766) risalente agli ultimi decenni del III secolo a.C. e ai primi del II, inciso in latino arcaico su pietra calcarea. È composto da due iscrizioni in cui è possibile leggere regolamenti imposti sull'utilizzo dei boschi considerati sacri.","wiki":"https://it.wikipedia.org/wiki/Lex_spoletina","wd":"https://www.wikidata.org/wiki/Q17635451"},{"id":"osm:node/5097494619","name":"Limite K-T","lat":43.365541,"lng":12.582635,"kind":"attraction","img":"https://commons.wikimedia.org/wiki/Special:FilePath/K-T_boundary.jpg?width=800","desc":"Con l'espressione limite K-Pg (in inglese K-Pg Boundary), precedentemente noto come limite Cretacico-Terziario (K-T), si indica il passaggio, nelle successioni stratigrafiche, tra Cretacico e Paleogene, datato a 65,5 ± 0,3 milioni di anni fa (secondo i dati fino al 2009, ma aggiornato a 65,95 milioni di anni fa secondo la direttive aggiornate all'agosto 2018 della Commissione Internazionale di Stratigrafia e la International Stratigraphic Chart versione 2018-08.). \nLa lettera K è l'abbreviazione normalmente usata per il Cretacico, mentre Pg fa riferimento al Paleogene.","wiki":"https://it.wikipedia.org/wiki/Limite_K-T","wd":"https://www.wikidata.org/wiki/Q682871"},{"id":"osm:node/521375864","name":"Cascata delle Marmore","lat":42.551162,"lng":12.715248,"kind":"attraction","img":"https://commons.wikimedia.org/wiki/Special:FilePath/Aerial_image_of_Cascata_delle_Marmore_%28view_from_the_northwest%29.jpg?width=800","desc":"La cascata delle Marmore è la più alta cascata artificiale d'Europa e tra le più alte del mondo, potendo contare su un dislivello complessivo di 165 m suddiviso in tre salti. A flusso controllato, è formata dal Velino e dal Nera, affluenti del Tevere.","wiki":"https://it.wikipedia.org/wiki/Cascata_delle_Marmore","wd":"https://www.wikidata.org/wiki/Q38580"},{"id":"osm:node/539477550","name":"Oratorio di San Francesco piccolino","lat":43.070264,"lng":12.615827,"kind":"church","img":"https://commons.wikimedia.org/wiki/Special:FilePath/San_Francesco_Piccolino_01.JPG?width=800","desc":"La chiesa San Francesco Piccolino è un edificio religioso del centro di Assisi, vicino alla Chiesa Nuova.\nFu costruito a partire dal XIII secolo grazie all'iniziativa di Piccardo, nipote del santo, nel luogo in cui si racconta che donna Pica diede alla luce san Francesco d'Assisi.","wiki":"https://it.wikipedia.org/wiki/Oratorio_di_San_Francesco_Piccolino","wd":"https://www.wikidata.org/wiki/Q14421920"},{"id":"osm:node/540035444","name":"Museo missionario indios","lat":43.07357,"lng":12.607768,"kind":"museum","desc":"Il Museo missionario Indios - frati Cappuccini dell'Umbria in Amazzonia (in sigla MUMA) nasce nel 2011, ma ad Assisi un museo dedicato ai missionari cappuccini esisteva dal 1973. Lo spirito creativo fu di padre Luciano Matarazzi, un frate appassionato dell'Amazzonia che costruì il Museo Missionario Indios attraverso doni che i missionari gli portavano facendo la spola tra la regione brasiliana dell'Alto Solimões e Assisi: animali imbalsamati, farfalle, strumenti musicali, maschere e artigianato di vario tipo.","wiki":"https://it.wikipedia.org/wiki/Museo_missionario_multimediale_d'Europa","wd":"https://www.wikidata.org/wiki/Q3868405"},{"id":"osm:node/613020424","name":"Trasimeno","lat":43.218459,"lng":12.056781,"kind":"attraction","img":"https://commons.wikimedia.org/wiki/Special:FilePath/Trasimene_battlefield.JPG?width=800","desc":"La battaglia del Trasimeno è stato uno degli scontri bellici maggiori della seconda guerra punica, e fu combattuta il mattino del 21 giugno 217 a.C. presso le sponde nord-occidentali del lago Trasimeno tra l'esercito romano, guidato dal console Gaio Flaminio Nepote, e quello cartaginese, al cui comando era Annibale Barca.\nAnnibale voleva decimare le due legioni guidate da Flaminio, che lo stavano seguendo lungo la sua marcia in Etruria, prima che si ricongiungessero con quelle dell'altro console Gneo Servilio Gemino.","wiki":"https://it.wikipedia.org/wiki/Battaglia_del_lago_Trasimeno","wd":"https://www.wikidata.org/wiki/Q207250"},{"id":"osm:node/6191988964","name":"Cappella Baglioni","lat":42.98995,"lng":12.672245,"kind":"attraction","img":"https://commons.wikimedia.org/wiki/Special:FilePath/Pinturicchio_Spello_Nativit.jpg?width=800","desc":"La cappella Baglioni si trova nella collegiata di Santa Maria Maggiore di Spello ed è celebre per la presenza di un ciclo di affreschi di Pinturicchio, databili tra il 1500 circa e il 1501.","wiki":"https://it.wikipedia.org/wiki/Cappella_Baglioni","wd":"https://www.wikidata.org/wiki/Q3657320"},{"id":"osm:node/6349607178","name":"fontana dei Bottini","lat":42.781723,"lng":12.410526,"kind":"attraction","img":"https://commons.wikimedia.org/wiki/Special:FilePath/TodiFontanaDeiBottini2.jpg?width=800","desc":"La Fontana dei Bottini è un fontanile ottocentesco, utilizzato un tempo quale abbeveratoio di animali e lavatoio, situato sul versante orientale del colle di Todi (PG), poche centinaia di metri a valle delle antiche mura cittadine, in prossimità dell'ex Mattatoio comunale (quest'ultimo oggi riconvertito a palazzina residenziale).","wiki":"https://it.wikipedia.org/wiki/Fontana_dei_Bottini","wd":"https://www.wikidata.org/wiki/Q3747334"},{"id":"osm:node/6421410681","name":"Museo Giuditta Brozzetti","lat":43.11742,"lng":12.383757,"kind":"museum","img":"https://commons.wikimedia.org/wiki/Special:FilePath/Giuditta_Brozzetti.jpg?width=800","desc":"Giuditta Casini Brozzetti (Perugia, 26 settembre 1877 – 23 maggio 1975) è stata un'imprenditrice italiana.","wiki":"https://it.wikipedia.org/wiki/Giuditta_Brozzetti","wd":"https://www.wikidata.org/wiki/Q16560379"},{"id":"osm:node/663049400","name":"Tempio italico di Monte Torre Maggiore","lat":42.628449,"lng":12.602551,"kind":"heritage","img":"https://commons.wikimedia.org/wiki/Special:FilePath/Torre_maggiore_panorama_sole_1024x768x24.png?width=800","desc":"Il monte Torre Maggiore è la vetta più alta dei monti Martani, in Umbria, e domina la Conca ternana.\nIn cima, a 1121 m s.l.m., vi si trova un'area archeologica con i resti di un tempio italico frequentato già dal V secolo a.C.: il ricordo del luogo di culto si ritrova anche nella precedente denominazione Ara Major.","wiki":"https://it.wikipedia.org/wiki/Monte_Torre_Maggiore","wd":"https://www.wikidata.org/wiki/Q3322158"},{"id":"osm:node/6722826730","name":"National archaeological museum","lat":42.733543,"lng":12.735074,"kind":"museum","img":"https://commons.wikimedia.org/wiki/Special:FilePath/Complesso_monumentale_di_Sant%27Agata._Monastero_di_Sant%27Agata%2C_abside_della_Chiesa_e_Teatro_Romano.jpg?width=800","desc":"Il complesso monumentale di Sant'Agata è situato all'interno della zona archeologica di Spoleto nell'area compresa fra via di Sant'Agata e via delle Terme; è composto dall'ex monastero di Sant'Agata, dall'omonima ex chiesa adiacente e dal Teatro romano. Apparteneva alla vaita San Benedetto.","wiki":"https://it.wikipedia.org/wiki/Complesso_monumentale_di_Sant'Agata","wd":"https://www.wikidata.org/wiki/Q20667071"},{"id":"osm:node/6792058651","name":"Bernardino Ragni","lat":42.732769,"lng":12.745994,"kind":"monument","img":"https://commons.wikimedia.org/wiki/Special:FilePath/Bernardino_Ragni._1999.jpg?width=800","desc":"Bernardino Ragni (Spoleto, 12 luglio 1946 – Spoleto, 16 gennaio 2018) è stato uno zoologo e biologo italiano.","wiki":"https://it.wikipedia.org/wiki/Bernardino_Ragni"},{"id":"osm:node/68507678","name":"Assisi","lat":43.071195,"lng":12.614667,"kind":"heritage","img":"https://commons.wikimedia.org/wiki/Special:FilePath/Flag_of_Assisi.svg?width=800","desc":"Assisi (afi: /asˈsizi/, anticamente Ascesi o Scesi) è un comune italiano di 27 408 abitanti della provincia di Perugia in Umbria.\nÈ nota per essere la città in cui vissero e morirono san Francesco, patrono d'Italia, e santa Chiara.","wiki":"https://it.wikipedia.org/wiki/Assisi","wd":"https://www.wikidata.org/wiki/Q20103"},{"id":"osm:node/6920872428","name":"Palazzo Santi (Museo Municipale)","lat":42.71821,"lng":13.013016,"kind":"museum","img":"https://commons.wikimedia.org/wiki/Special:FilePath/Palazzo_Santi_-_sede_del_museo.jpg?width=800","desc":"Palazzo Santi, sede del Museo civico di Cascia , fu costruito nel XVI secolo e appartenne alla famiglia nobiliare dei Santi.\nNel corso del tempo il palazzo è stato adibito a residenza e ambulatorio del medico condotto e successivamente è stato destinato a caserma dei carabinieri e a carcere.","wiki":"https://it.wikipedia.org/wiki/Museo_civico_di_Cascia"},{"id":"osm:node/9702827539","name":"Porta Sole","lat":43.113852,"lng":12.390677,"kind":"attraction","img":"https://commons.wikimedia.org/wiki/Special:FilePath/Arco_di_via_Bontempi_Perugia.jpg?width=800","desc":"Unire a Arco dei Gigli\n\nLa Porta Sole, nota anche come arco dei Gigli o dei Montesperelli, è una delle antiche porta cittadina della cinta muraria etrusca della città di Perugia. In verità, la denominazione Porta Sole appartenne, prima che all'Arco dei Gigli, ad altre due porte, oggi distrutte.","wiki":"https://it.wikipedia.org/wiki/Porta_Sole"},{"id":"osm:node/9902357046","name":"Museo dinamico del laterizio e delle terrecotte","lat":42.910562,"lng":12.337465,"kind":"museum","img":"https://commons.wikimedia.org/wiki/Special:FilePath/Palazzo_Pietromarchi.jpg?width=800","desc":"Il museo dinamico del laterizio e delle terrecotte è un museo di Marsciano, dedicato alla produzione plurisecolare e tradizionale del laterizio e delle terrecotte.\nLa sede si trova nel trecentesco Palazzo Pietromarchi.","wiki":"https://it.wikipedia.org/wiki/Museo_dinamico_del_laterizio_e_delle_terrecotte","wd":"https://www.wikidata.org/wiki/Q16580635"},{"id":"osm:relation/11694958","name":"Ex Mattatoio","lat":42.736502,"lng":12.732827,"kind":"attraction","img":"https://commons.wikimedia.org/wiki/Special:FilePath/Ex_mattatoio_di_Spoleto_3.jpg?width=800","desc":"L'Ex mattatoio civico di Spoleto è un edificio ottocentesco, fatiscente che si trova nella parte bassa della città, tra via Interna delle Mura e via Martiri della Resistenza, nel tratto rettilineo e meglio conservato delle mura trecentesche. Nonostante sia sottoposto dal 2012 a vincolo architettonico dal Ministero dei beni e delle attività culturali e del turismo (MiBACT) e rappresenti un'importante testimonianza culturale e storico-architettonica della città, versa in pessime condizioni, in stato di completo abbandono dal 1963.","wiki":"https://it.wikipedia.org/wiki/Ex_mattatoio_civico_di_Spoleto","wd":"https://www.wikidata.org/wiki/Q110418216"},{"id":"osm:relation/12720445","name":"Mura ciclopiche","lat":42.734921,"lng":12.738121,"kind":"attraction","img":"https://commons.wikimedia.org/wiki/Special:FilePath/Mura_preromane_%284%29.JPG?width=800","desc":"Le mura di Spoleto sono le antiche cerchie difensive della città. Si contano due tracciati diversi: il primo, detto anche mura ciclopiche, è sorto a più riprese nei secoli VI - I a.C. ed è stato utilizzato fino al Medioevo; il secondo, denominato mura trecentesche o mura medievali, i cui lavori sono iniziati nel 1297, è stato ultimato presumibilmente agli inizi del XIV secolo.","wiki":"https://it.wikipedia.org/wiki/Mura_di_Spoleto","wd":"https://www.wikidata.org/wiki/Q18809826"},{"id":"osm:relation/13781597","name":"Longobardi in Italia: i luoghi del potere","lat":43.612013,"lng":12.405514,"kind":"heritage","img":"https://it.wikipedia.org/wiki/Special:FilePath/Tempietto_di_Cividale_del_Friuli.jpg?width=800","desc":"Longobardi in Italia: i luoghi del potere (568-774) è un sito seriale italiano inserito dall'UNESCO nella Lista del Patrimonio Mondiale il 25 giugno 2011. La serie comprende sette località in cui sono custoditi beni artistico-monumentali dell'epoca longobarda.","wiki":"https://it.wikipedia.org/wiki/Longobardi_in_Italia%3A_i_luoghi_del_potere"},{"id":"osm:relation/1662079","name":"Palazzo Polidori","lat":42.718244,"lng":12.107396,"kind":"monument","wiki":"https://it.wikipedia.org/wiki/Palazzi_rinascimentali_di_Orvieto","wd":"https://www.wikidata.org/wiki/Q3889464"},{"id":"osm:relation/1717011","name":"Ex Ferrovia Spoleto Norcia","lat":42.779977,"lng":12.917209,"kind":"attraction","desc":"La ferrovia Spoleto-Norcia è stata una ferrovia a scartamento ridotto a trazione elettrica nell'appennino umbro, dismessa nel 1968.","wiki":"https://it.wikipedia.org/wiki/Ferrovia_Spoleto-Norcia","wd":"https://www.wikidata.org/wiki/Q3743633"},{"id":"osm:relation/1744406","name":"Palazzo Monaldeschi-Marsciano","lat":42.716728,"lng":12.110593,"kind":"attraction","wiki":"https://it.wikipedia.org/wiki/Palazzi_rinascimentali_di_Orvieto","wd":"https://www.wikidata.org/wiki/Q3889464"},{"id":"osm:relation/1745523","name":"Palazzo Cartari","lat":42.717083,"lng":12.111814,"kind":"monument","wiki":"https://it.wikipedia.org/wiki/Palazzi_rinascimentali_di_Orvieto","wd":"https://www.wikidata.org/wiki/Q3889464"},{"id":"osm:relation/1745524","name":"Palazzo Guidoni","lat":42.718904,"lng":12.113442,"kind":"monument","wiki":"https://it.wikipedia.org/wiki/Palazzi_rinascimentali_di_Orvieto","wd":"https://www.wikidata.org/wiki/Q3889464"},{"id":"osm:relation/1745826","name":"Palazzo Faustini","lat":42.718933,"lng":12.108002,"kind":"monument","wiki":"https://it.wikipedia.org/wiki/Palazzi_rinascimentali_di_Orvieto","wd":"https://www.wikidata.org/wiki/Q3889464"},{"id":"osm:relation/1745827","name":"Palazzo Mazzocchi","lat":42.719218,"lng":12.108354,"kind":"monument","wiki":"https://it.wikipedia.org/wiki/Palazzi_rinascimentali_di_Orvieto","wd":"https://www.wikidata.org/wiki/Q3889464"},{"id":"osm:relation/20811200","name":"Cimitero monumentale di Spoleto","lat":42.742146,"lng":12.743121,"kind":"attraction","img":"https://commons.wikimedia.org/wiki/Special:FilePath/Cimitero_monumentale_di_Spoleto_2.jpg?width=800","desc":"Il cimitero monumentale di Spoleto è il più importante dei venticinque camposanti dislocati nel comprensorio spoletino. Si trova sul colle Ciciano (o colle Luciano) nella periferia nord della città.","wiki":"https://it.wikipedia.org/wiki/Cimitero_monumentale_di_Spoleto","wd":"https://www.wikidata.org/wiki/Q23714519"},{"id":"osm:relation/2154336","name":"Museo Archeologico Nazionale dell'Umbria","lat":43.106881,"lng":12.392427,"kind":"museum","img":"https://commons.wikimedia.org/wiki/Special:FilePath/Perugia%2C_museo_archeologico_nazionale%2C_ingresso_02.jpg?width=800","desc":"Il Museo archeologico nazionale dell'Umbria - MANU è un museo archeologico con sede a Perugia in piazza Giordano Bruno.\nDal dicembre 2014 il Ministero per i beni e le attività culturali lo gestisce tramite il Polo museale dell'Umbria, nel dicembre 2019 divenuto Direzione regionale Musei Umbria.","wiki":"https://it.wikipedia.org/wiki/Museo_archeologico_nazionale_dell'Umbria","wd":"https://www.wikidata.org/wiki/Q2252001"},{"id":"osm:relation/2960999","name":"Auditorium San Domenico","lat":42.954129,"lng":12.699882,"kind":"attraction","img":"https://commons.wikimedia.org/wiki/Special:FilePath/Foligno_-_Ex_chiesa%2C_ora_auditorium%2C_di_San_Domenico_-_2023-09-17_14-16-50_006.jpg?width=800","desc":"La chiesa di San Domenico è uno degli edifici religiosi più antichi di Foligno, ora trasformato in Auditorium. Si trova nella omonima piazza e ha affiancato il vecchio convento.","wiki":"https://it.wikipedia.org/wiki/Chiesa_di_San_Domenico_(Foligno)","wd":"https://www.wikidata.org/wiki/Q55673145"},{"id":"osm:relation/3249758","name":"Bridge of Augustus","lat":42.525531,"lng":12.514302,"kind":"heritage","img":"https://commons.wikimedia.org/wiki/Special:FilePath/Ponte_di_Augusto_-Narni-Terni-Umbria.jpg?width=800","desc":"Il ponte di Augusto è un ponte di epoca romana situato nei pressi di Narni Scalo ed utilizzato anticamente per l'attraversamento della gola creata dal fiume Nera.","wiki":"https://it.wikipedia.org/wiki/Ponte_di_Augusto","wd":"https://www.wikidata.org/wiki/Q2103779"},{"id":"osm:relation/3415866","name":"Palazzo Trinci","lat":42.95642,"lng":12.702765,"kind":"monument","img":"https://commons.wikimedia.org/wiki/Special:FilePath/PalazzoTrinci003.jpg?width=800","desc":"Palazzo Trinci è un edificio patrizio che si trova nel centro di Foligno, in piazza della Repubblica, ed è una delle più interessanti dimore tardogotiche dell'Italia centrale. Contiene un prezioso ciclo di affreschi dei primi del Quattrocento, realizzato da Gentile da Fabriano con la collaborazione di altri artisti, e ospita la Pinacoteca civica, il Museo archeologico e il Museo multimediale dei tornei, delle giostre e dei giochi.","wiki":"https://it.wikipedia.org/wiki/Palazzo_Trinci","wd":"https://www.wikidata.org/wiki/Q634570"},{"id":"osm:relation/3691276","name":"Ex Ferrovia Ellera-Tavernelle","lat":43.047525,"lng":12.236284,"kind":"attraction","img":"https://commons.wikimedia.org/wiki/Special:FilePath/Mappa_ferr_Ellera-Tavernelle.png?width=800","desc":"La ferrovia Ellera-Tavernelle era una linea ferroviaria a singolo binario non elettrificata, che collegava la stazione di Ellera-Corciano, sulla linea Foligno-Terontola, con Tavernelle, percorrendo la valle del fiume Nestore.\nPoiché il previsto prolungamento fino a Chiusi (sulla ferrovia Firenze-Roma) non fu mai realizzato, la linea rimase sempre un tronco isolato, e venne dismessa dopo soli 7 anni dalla sua attivazione.","wiki":"https://it.wikipedia.org/wiki/Ferrovia_Ellera-Tavernelle"},{"id":"osm:relation/6599043","name":"La Scarzuola","lat":42.898531,"lng":12.15326,"kind":"park","img":"https://commons.wikimedia.org/wiki/Special:FilePath/Scarzuola.jpg?width=800","desc":"La Scarzuola è una località rurale dell'Umbria, ubicata nella frazione Montegiove del comune di Montegabbione, in provincia di Terni. È conosciuta per l'antico convento dove, secondo tradizione, avrebbe dimorato san Francesco d'Assisi, e per la villa che ha la forma di \"città-teatro\", concepita e costruita nel ventesimo secolo da Tomaso Buzzi come personale interpretazione del tema della \"città ideale\".","wiki":"https://it.wikipedia.org/wiki/La_Scarzuola","wd":"https://www.wikidata.org/wiki/Q1799127"},{"id":"osm:relation/6713762","name":"Tempio romano di Villa San Silvestro","lat":42.650413,"lng":13.055309,"kind":"heritage","img":"https://commons.wikimedia.org/wiki/Special:FilePath/Particolare_della_sezione_archeologica.JPG?width=800","desc":"Il tempio romano di Villa San Silvestro è un antico tempio romano  i cui resti sono stati rimessi in luce presso la chiesa di San Silvestro a Villa San Silvestro, frazione di Cascia, in provincia di Perugia.","wiki":"https://it.wikipedia.org/wiki/Tempio_romano_di_Villa_San_Silvestro","wd":"https://www.wikidata.org/wiki/Q16612742"},{"id":"osm:way/100728953","name":"Lancia di Luce","lat":42.557271,"lng":12.645188,"kind":"attraction","img":"https://commons.wikimedia.org/wiki/Special:FilePath/Arnaldo_pomodoro%2C_lancia_di_luce%2C_1995%2C_01.jpg?width=800","desc":"La Lancia di luce è un obelisco dello scultore italiano Arnaldo Pomodoro, realizzata interamente in acciaio, ideata nel 1984 e costruita nel 1995. L'opera è esposta presso il comune umbro di Terni.","wiki":"https://it.wikipedia.org/wiki/Lancia_di_luce","wd":"https://www.wikidata.org/wiki/Q56258114"},{"id":"osm:way/101088334","name":"Bridge of Augustus","lat":42.525044,"lng":12.514531,"kind":"heritage","img":"https://commons.wikimedia.org/wiki/Special:FilePath/Ponte_di_Augusto_-Narni-Terni-Umbria.jpg?width=800","desc":"Il ponte di Augusto è un ponte di epoca romana situato nei pressi di Narni Scalo ed utilizzato anticamente per l'attraversamento della gola creata dal fiume Nera.","wiki":"https://it.wikipedia.org/wiki/Ponte_di_Augusto","wd":"https://www.wikidata.org/wiki/Q2103779"},{"id":"osm:way/105440966","name":"Museo di Santa Maria degli Angeli","lat":43.057535,"lng":12.580132,"kind":"museum","img":"https://commons.wikimedia.org/wiki/Special:FilePath/S.Maria.degli.Angeli31.jpg?width=800","desc":"Il Museo di Santa Maria degli Angeli si trova in alcuni locali dell'ex convento di Santa Maria degli Angeli ad Assisi.","wiki":"https://it.wikipedia.org/wiki/Museo_di_Santa_Maria_degli_Angeli","wd":"https://www.wikidata.org/wiki/Q3868184"},{"id":"osm:way/105461759","name":"Chiesa di San Francesco","lat":43.35161,"lng":12.576612,"kind":"church","img":"https://commons.wikimedia.org/wiki/Special:FilePath/San_Francesco_%28Gubbio%29.JPG?width=800","desc":"La chiesa di San Francesco è un edificio religioso situato a Gubbio.\n\nLa chiesa, costruita nella seconda metà del XIII secolo presso il fondaco della famiglia Spadalonga, che avrebbe accolto San Francesco d'Assisi dopo il suo abbandono della casa paterna, risulta già officiata nel 1256, ma nel 1291 non era ancora completata in alcuni lavori di decorazione.","wiki":"https://it.wikipedia.org/wiki/Chiesa_di_San_Francesco_(Gubbio)","wd":"https://www.wikidata.org/wiki/Q17017167"},{"id":"osm:way/106360715","name":"Fontana Maggiore","lat":43.112143,"lng":12.388814,"kind":"monument","img":"https://commons.wikimedia.org/wiki/Special:FilePath/Perugia_029.JPG?width=800","desc":"La Fontana Maggiore, situata al centro di piazza IV Novembre (già piazza Grande), è il monumento simbolo della città di Perugia.","wiki":"https://it.wikipedia.org/wiki/Fontana_Maggiore","wd":"https://www.wikidata.org/wiki/Q1435815"},{"id":"osm:way/106692825","name":"Arco Etrusco","lat":43.114432,"lng":12.389672,"kind":"castle","img":"https://commons.wikimedia.org/wiki/Special:FilePath/ArcoEtrusco2022.jpg?width=800","desc":"L'Arco Etrusco, detto anche Arco di Augusto, è una delle sette porte delle mura etrusche di Perugia. Fu costruito nella seconda metà del IV secolo a.C. e fu fatto ristrutturare da Augusto nel 40 a.C. dopo la sua vittoria nella guerra di Perugia.","wiki":"https://it.wikipedia.org/wiki/Arco_Etrusco","wd":"https://www.wikidata.org/wiki/Q1892295"},{"id":"osm:way/112557166","name":"Villa di Plinio il Giovane","lat":43.530445,"lng":12.214628,"kind":"heritage","img":"https://commons.wikimedia.org/wiki/Special:FilePath/San_Giustino-Bandiera.svg?width=800","desc":"San Giustino è un comune italiano di 11 049 abitanti della provincia di Perugia in Umbria.\nSituato nell'alta Valle del Tevere, il paese di San Giustino, insieme alla contigua città toscana di Sansepolcro, costituisce un unico agglomerato di circa 26 000 abitanti.","wiki":"https://it.wikipedia.org/wiki/San_Giustino_(Italia)","wd":"https://www.wikidata.org/wiki/Q20518"},{"id":"osm:way/114136329","name":"Ponte Cardona","lat":42.507041,"lng":12.538649,"kind":"monument","img":"https://commons.wikimedia.org/wiki/Special:FilePath/Ponte_Cardona_%281%29.jpg?width=800","desc":"Ponte Cardona faceva parte dell'acquedotto romano della Formina e nei suoi pressi cade convenzionalmente il centro geografico dell'Italia peninsulare.","wiki":"https://it.wikipedia.org/wiki/Ponte_Cardona"},{"id":"osm:way/1149290959","name":"Porta di Santa Susanna","lat":43.111861,"lng":12.382936,"kind":"castle","img":"https://commons.wikimedia.org/wiki/Special:FilePath/Porta_Santa_Susanna_-_panoramio.jpg?width=800","desc":"La Porta Santa Susanna, o Porta di Sant'Andrea, è una porta cittadina di Perugia. Situata in Via della Sposa, si fa risalire all'epoca tardomedievale.","wiki":"https://it.wikipedia.org/wiki/Porta_di_Santa_Susanna","wd":"https://www.wikidata.org/wiki/Q3908928"},{"id":"osm:way/1188264839","name":"Galleria San Martino","lat":42.742364,"lng":12.823799,"kind":"attraction","desc":"La ferrovia Spoleto-Norcia è stata una ferrovia a scartamento ridotto a trazione elettrica nell'appennino umbro, dismessa nel 1968.","wiki":"https://it.wikipedia.org/wiki/Ferrovia_Spoleto-Norcia","wd":"https://www.wikidata.org/wiki/Q3743633"},{"id":"osm:way/120704267","name":"Palazzo Medici","lat":42.716862,"lng":12.107634,"kind":"attraction","wiki":"https://it.wikipedia.org/wiki/Palazzi_medievali_di_Orvieto","wd":"https://www.wikidata.org/wiki/Q3889462"},{"id":"osm:way/121520813","name":"Palazzo Ottaviani","lat":42.718666,"lng":12.107893,"kind":"attraction","wiki":"https://it.wikipedia.org/wiki/Palazzi_rinascimentali_di_Orvieto","wd":"https://www.wikidata.org/wiki/Q3889464"},{"id":"osm:way/121533586","name":"Palazzo Alberi","lat":42.718702,"lng":12.112478,"kind":"attraction","wiki":"https://it.wikipedia.org/wiki/Palazzi_rinascimentali_di_Orvieto","wd":"https://www.wikidata.org/wiki/Q3889464"},{"id":"osm:way/121533588","name":"Palazzo Simoncelli","lat":42.719284,"lng":12.109711,"kind":"attraction","wiki":"https://it.wikipedia.org/wiki/Palazzi_rinascimentali_di_Orvieto","wd":"https://www.wikidata.org/wiki/Q3889464"},{"id":"osm:way/121553265","name":"Palazzo Carvajal-Simoncelli","lat":42.71871,"lng":12.104442,"kind":"attraction","wiki":"https://it.wikipedia.org/wiki/Palazzi_rinascimentali_di_Orvieto","wd":"https://www.wikidata.org/wiki/Q3889464"},{"id":"osm:way/121553266","name":"Palazzo Marabottini","lat":42.719858,"lng":12.108025,"kind":"attraction","wiki":"https://it.wikipedia.org/wiki/Palazzi_rinascimentali_di_Orvieto","wd":"https://www.wikidata.org/wiki/Q3889464"},{"id":"osm:way/121553267","name":"Palazzo Pandofi","lat":42.717504,"lng":12.112063,"kind":"attraction","wiki":"https://it.wikipedia.org/wiki/Palazzi_rinascimentali_di_Orvieto","wd":"https://www.wikidata.org/wiki/Q3889464"},{"id":"osm:way/121553268","name":"Palazzo Saracinelli","lat":42.716437,"lng":12.108545,"kind":"attraction","wiki":"https://it.wikipedia.org/wiki/Palazzi_rinascimentali_di_Orvieto","wd":"https://www.wikidata.org/wiki/Q3889464"},{"id":"osm:way/126736585","name":"Porta San Pietro","lat":43.104608,"lng":12.392939,"kind":"castle","img":"https://commons.wikimedia.org/wiki/Special:FilePath/Porta_San_Pietro%2C_Perugia%2C_2023.jpg?width=800","desc":"La Porta di San Pietro, o Porta Romana, è una delle porte medievali di Perugia.\nInserita nella cinta muraria del XIII-XIV secolo, si trova alla fine di Corso Cavour e delimita l'inizio di Borgo XX Giugno, noto come il \"borgo bello\".","wiki":"https://it.wikipedia.org/wiki/Porta_di_San_Pietro_(Perugia)","wd":"https://www.wikidata.org/wiki/Q3908923"},{"id":"osm:way/126747533","name":"Galleria San Martino","lat":42.743222,"lng":12.823726,"kind":"attraction","desc":"La ferrovia Spoleto-Norcia è stata una ferrovia a scartamento ridotto a trazione elettrica nell'appennino umbro, dismessa nel 1968.","wiki":"https://it.wikipedia.org/wiki/Ferrovia_Spoleto-Norcia","wd":"https://www.wikidata.org/wiki/Q3743633"},{"id":"osm:way/126832465","name":"Arco di Sant'Ercolano","lat":43.108889,"lng":12.389717,"kind":"castle","img":"https://commons.wikimedia.org/wiki/Special:FilePath/Arco_di_S.Ercolano.JPG?width=800","desc":"L’Arco di S. Ercolano (anticamente Porta Cornea) si trova a Perugia sulle omonime scalette di Sant'Ercolano. Faceva parte delle mura cittadine di origine etrusca, costruita nella seconda metà del III secolo a.C. Era una delle 7 porte di accesso alla città etrusca.","wiki":"https://it.wikipedia.org/wiki/Arco_di_Sant'Ercolano","wd":"https://www.wikidata.org/wiki/Q3621791"},{"id":"osm:way/127725824","name":"Arco dei Gigli","lat":43.112538,"lng":12.392653,"kind":"castle","img":"https://commons.wikimedia.org/wiki/Special:FilePath/Arco_di_via_Bontempi_Perugia.jpg?width=800","desc":"Unire a Porta Sole\n\n \nL'Arco dei Gigli è una delle aperture lungo la cinta muraria etrusca della città di Perugia.","wiki":"https://it.wikipedia.org/wiki/Arco_dei_Gigli","wd":"https://www.wikidata.org/wiki/Q3621763"},{"id":"osm:way/1292914820","name":"Ex Ferrovia Spoleto Norcia","lat":42.744045,"lng":12.823853,"kind":"attraction","desc":"La ferrovia Spoleto-Norcia è stata una ferrovia a scartamento ridotto a trazione elettrica nell'appennino umbro, dismessa nel 1968.","wiki":"https://it.wikipedia.org/wiki/Ferrovia_Spoleto-Norcia","wd":"https://www.wikidata.org/wiki/Q3743633"},{"id":"osm:way/129317223","name":"Palazzo Aviamozzi-Alberici","lat":42.716579,"lng":12.107961,"kind":"attraction","wiki":"https://it.wikipedia.org/wiki/Palazzi_rinascimentali_di_Orvieto","wd":"https://www.wikidata.org/wiki/Q3889464"},{"id":"osm:way/129317224","name":"Palazzo Benincasa","lat":42.715676,"lng":12.108512,"kind":"attraction","wiki":"https://it.wikipedia.org/wiki/Palazzi_rinascimentali_di_Orvieto","wd":"https://www.wikidata.org/wiki/Q3889464"},{"id":"osm:way/129317225","name":"Palazzo Buzi","lat":42.716346,"lng":12.114041,"kind":"attraction","wiki":"https://it.wikipedia.org/wiki/Palazzi_rinascimentali_di_Orvieto","wd":"https://www.wikidata.org/wiki/Q3889464"},{"id":"osm:way/129317226","name":"Palazzo dell'Opera del Duomo","lat":42.716404,"lng":12.112871,"kind":"attraction","wiki":"https://it.wikipedia.org/wiki/Palazzi_moderni_di_Orvieto","wd":"https://www.wikidata.org/wiki/Q3889463"},{"id":"osm:way/132115686","name":"Museo del vino","lat":43.025655,"lng":12.433421,"kind":"museum","img":"https://commons.wikimedia.org/wiki/Special:FilePath/Pittore_di_Phrynos%2C_kylix_a_figure_nere%2C_Museo_del_vino_Torgiano.jpg?width=800","desc":"Il Museo del Vino di Torgiano (MUVIT) è un museo privato specializzato.","wiki":"https://it.wikipedia.org/wiki/Museo_del_vino_(Torgiano)","wd":"https://www.wikidata.org/wiki/Q1631251"},{"id":"osm:way/166123192","name":"Palazzo comunale","lat":42.734451,"lng":12.738343,"kind":"attraction","img":"https://commons.wikimedia.org/wiki/Special:FilePath/Palazzo_Comunale-_Esterno.jpg?width=800","desc":"Il Palazzo comunale di Spoleto si trova a metà strada fra il foro, attuale piazza del Mercato, e piazza del Duomo, in una zona (nel medioevo chiamata Vaita Palazzo) dove fin dall'antichità sorgevano case gentilizie, dimore private o di rappresentanza. Le sue fondazioni poggiano in parte sull'area della Casa romana scoperta da Giuseppe Sordini nel 1885.","wiki":"https://it.wikipedia.org/wiki/Palazzo_Comunale_(Spoleto)","wd":"https://www.wikidata.org/wiki/Q18578917"},{"id":"osm:way/168541215","name":"Tempietto del Clitunno","lat":42.842246,"lng":12.756905,"kind":"church","img":"https://commons.wikimedia.org/wiki/Special:FilePath/Trevi.Clitumno007.jpg?width=800","desc":"Il tempietto del Clitunno è un piccolo sacello a forma di tempio nel comune di Campello sul Clitunno (PG). Si trova a circa 1 km a valle delle sorgenti del fiume Clitunno (\"Fonti del Clitunno\"), in una zona dove si trovano altre risorgive (\"Vene del Tempio\"), nella frazione di Pissignano.","wiki":"https://it.wikipedia.org/wiki/Tempietto_del_Clitunno","wd":"https://www.wikidata.org/wiki/Q3983167"},{"id":"osm:way/205124407","name":"Basilica di San Gregorio Maggiore","lat":42.740221,"lng":12.736286,"kind":"church","img":"https://commons.wikimedia.org/wiki/Special:FilePath/192SpoletoSGregorioMaggiore.JPG?width=800","desc":"La basilica di San Gregorio Maggiore si affaccia sul lato occidentale di piazza Garibaldi a Spoleto, in provincia di Perugia e arcidiocesi di Spoleto-Norcia; fa parte del vicariato di Spoleto.\nFu chiamata San Gregorio maggiore, per distinguerla da altre due chiese dedicate allo stesso santo.","wiki":"https://it.wikipedia.org/wiki/Basilica_di_San_Gregorio_Maggiore","wd":"https://www.wikidata.org/wiki/Q16912517"},{"id":"osm:way/207812059","name":"Santa Maria di Valdiponte","lat":43.198555,"lng":12.492427,"kind":"church","img":"https://commons.wikimedia.org/wiki/Special:FilePath/Montelabate.jpg?width=800","desc":"L'abbazia di Santa Maria di Valdiponte è un antico complesso monastico benedettino situato a nord di Perugia, presso la località Montelabate, nome con il quale è oggi comunemente nota.","wiki":"https://it.wikipedia.org/wiki/Abbazia_di_Santa_Maria_di_Valdiponte","wd":"https://www.wikidata.org/wiki/Q3603281"},{"id":"osm:way/210637521","name":"Torre Civica","lat":42.557284,"lng":12.414547,"kind":"monument","img":"https://commons.wikimedia.org/wiki/Special:FilePath/Amelia_Torre_Civica.jpg?width=800","desc":"La Torre dodecagonale è il simbolo della città di Amelia.","wiki":"https://it.wikipedia.org/wiki/Torre_civica_(Amelia)","wd":"https://www.wikidata.org/wiki/Q17638766"},{"id":"osm:way/225411017","name":"Villa Fidelia","lat":42.999326,"lng":12.663753,"kind":"attraction","img":"https://commons.wikimedia.org/wiki/Special:FilePath/Spello_%28Hispellum%29%2C_Italy_%2830606152607%29.jpg?width=800","desc":"Villa Fidelia, o Costanzi, è un edificio cintato secentesco dotato di un grande parco e giardino all'italiana, costruito sul sito di un santuario romano del IV secolo. Sorge nei dintorni di Spello, in provincia di Perugia, alla base di un colle, lungo la Strada Centrale Umbra.Furono gli Urbani, agiata famiglia spellana, nel XVII secolo, a realizzare il nuovo desiderio della nobiltà di possedere una villa in campagna, fuori le mura, dove trascorrere la buona stagione.","wiki":"https://it.wikipedia.org/wiki/Villa_Fidelia","wd":"https://www.wikidata.org/wiki/Q16621407"},{"id":"osm:way/226225306","name":"Santa Maria Maggiore","lat":42.989883,"lng":12.672225,"kind":"church","img":"https://commons.wikimedia.org/wiki/Special:FilePath/Cammino_Francescano_della_Marca%2C_Spello%2C_Collegiata_di_Santa_Maria_Maggiore_01.jpg?width=800","desc":"La collegiata di Santa Maria Maggiore è la chiesa principale di Spello, in provincia di Perugia e diocesi di Foligno.","wiki":"https://it.wikipedia.org/wiki/Collegiata_di_Santa_Maria_Maggiore_(Spello)","wd":"https://www.wikidata.org/wiki/Q3682931"},{"id":"osm:way/229142828","name":"Urvinum Hortense","lat":42.984581,"lng":12.524883,"kind":"heritage","img":"https://commons.wikimedia.org/wiki/Special:FilePath/Urvinum_Hortense_1.jpg?width=800","desc":"Urvinum Hortense was an ancient Roman town near modern Collemancio, Cannara, Italy.\nIt was mentioned by Pliny the Elder in a roughly alphabetical and contextless list.","wiki":"https://en.wikipedia.org/wiki/Urbinum_Hortense","wd":"https://www.wikidata.org/wiki/Q7900277"},{"id":"osm:way/237733434","name":"Palazzo dei Consoli","lat":43.353412,"lng":12.578291,"kind":"castle","img":"https://commons.wikimedia.org/wiki/Special:FilePath/06024_Gubbio%2C_Province_of_Perugia%2C_Italy_-_panoramio_%2831%29.jpg?width=800","desc":"Il Palazzo dei Consoli si trova in piazza Grande, a Gubbio, e rappresenta uno dei più imponenti palazzi pubblici d'Italia.","wiki":"https://it.wikipedia.org/wiki/Palazzo_dei_Consoli","wd":"https://www.wikidata.org/wiki/Q3361073"},{"id":"osm:way/238107829","name":"Fanum Voltumnae","lat":42.712386,"lng":12.096148,"kind":"heritage","desc":"Il Fanum Voltumnae era il principale santuario federale degli Etruschi, luogo di culto della divinità che le fonti latine chiamano Voltumna. Secondo Tito Livio vi si riunivano periodicamente i rappresentanti dei dodici popoli della lega etrusca per deliberare su questioni di interesse comune e per celebrare cerimonie religiose e giochi solenni.","wiki":"https://it.wikipedia.org/wiki/Fanum_Voltumnae","wd":"https://www.wikidata.org/wiki/Q1397996"},{"id":"osm:way/244567501","name":"Tempio romano di Villa San Silvestro, area nord","lat":42.650676,"lng":13.055073,"kind":"heritage","img":"https://commons.wikimedia.org/wiki/Special:FilePath/Particolare_della_sezione_archeologica.JPG?width=800","desc":"Il tempio romano di Villa San Silvestro è un antico tempio romano  i cui resti sono stati rimessi in luce presso la chiesa di San Silvestro a Villa San Silvestro, frazione di Cascia, in provincia di Perugia.","wiki":"https://it.wikipedia.org/wiki/Tempio_romano_di_Villa_San_Silvestro","wd":"https://www.wikidata.org/wiki/Q16612742"},{"id":"osm:way/250817649","name":"Castello Di Giomici","lat":43.192959,"lng":12.610776,"kind":"castle","img":"https://commons.wikimedia.org/wiki/Special:FilePath/Italy_provincial_location_map_2016.svg?width=800","desc":"Giomici (Giòmici) è una frazione del comune di Valfabbrica, in provincia di Perugia.\nSecondo i dati del censimento Istat 2001, il paese era abitato da 6 persone.","wiki":"https://it.wikipedia.org/wiki/Giomici","wd":"https://www.wikidata.org/wiki/Q3765102"},{"id":"osm:way/251963062","name":"Porta Eburnea","lat":43.108638,"lng":12.3857,"kind":"castle","img":"https://commons.wikimedia.org/wiki/Special:FilePath/Arco_della_Mandorla.JPG?width=800","desc":"La porta Eburnea, o arco della Mandorla, è una porta cittadina della cinta muraria etrusca di Perugia.\nSi trova in piazza Mariotti, nel rione omonimo (di Porta Eburnea, il cui simbolo è appunto un elefante).","wiki":"https://it.wikipedia.org/wiki/Porta_Eburnea","wd":"https://www.wikidata.org/wiki/Q3908709"},{"id":"osm:way/251983605","name":"Trasimena Gate","lat":43.112881,"lng":12.384113,"kind":"castle","img":"https://commons.wikimedia.org/wiki/Special:FilePath/Perugia_-_Porta_Trasimena.jpg?width=800","desc":"La Porta Trasimena, chiamata anche Arco di San Luca per la vicinanza alla Chiesa di san Luca, si trova a Perugia, in via dei Priori.","wiki":"https://it.wikipedia.org/wiki/Porta_Trasimena","wd":"https://www.wikidata.org/wiki/Q3908853"},{"id":"osm:way/251986073","name":"Porta di Sant'Angelo","lat":43.119544,"lng":12.384574,"kind":"castle","img":"https://commons.wikimedia.org/wiki/Special:FilePath/Perugia%2C_porta_sant%27angelo_04.jpg?width=800","desc":"Il Cassero di Porta di Sant'Angelo è una delle porte medievali delle mura di Perugia, situata nel rione di Sant'Angelo, al termine di corso Garibaldi, adiacente al tempio di Sant'Angelo. È visibile nel Gonfalone della Giustizia dipinto dal Perugino (1496-1498), conservato alla Galleria nazionale dell'Umbria.","wiki":"https://it.wikipedia.org/wiki/Cassero_di_Porta_di_Sant'Angelo","wd":"https://www.wikidata.org/wiki/Q3908925"},{"id":"osm:way/253363045","name":"Palazzo Vescovile","lat":42.716778,"lng":12.114346,"kind":"attraction","wiki":"https://it.wikipedia.org/wiki/Palazzi_medievali_di_Orvieto","wd":"https://www.wikidata.org/wiki/Q3889462"},{"id":"osm:way/254823529","name":"Museo dell'olivo e dell'olio","lat":43.025239,"lng":12.434304,"kind":"museum","img":"https://commons.wikimedia.org/wiki/Special:FilePath/MOO_-_T%C3%BCrkische_Lampe.jpg?width=800","desc":"Il Museo dell'olivo e dell'olio è un museo privato specializzato, situato a Torgiano, in ambienti che furono sede di un frantoio attivo fino agli anni sessanta del Novecento.\nAttraverso collezioni di arti applicate e raccolte di cultura materiale documenta le tecniche di olivicoltura ed elaiotecnica, gli usi tradizionali e i significati simbolici dell'olivo e dell'olio d'oliva.","wiki":"https://it.wikipedia.org/wiki/Museo_dell'olivo_e_dell'olio","wd":"https://www.wikidata.org/wiki/Q114878"},{"id":"osm:way/255221330","name":"Sala dei Notari","lat":43.111825,"lng":12.388571,"kind":"attraction","img":"https://commons.wikimedia.org/wiki/Special:FilePath/Palazzo_dei_priori.jpg?width=800","desc":"Il Palazzo dei Priori, o comunale, è uno dei migliori esempi d'Italia di palazzo pubblico dell'età comunale. Sorge nella centrale Piazza IV Novembre a Perugia, in Umbria.","wiki":"https://it.wikipedia.org/wiki/Palazzo_dei_Priori_(Perugia)%23Sala_dei_Notari"},{"id":"osm:way/255530044","name":"Palazzo Orfini","lat":42.956035,"lng":12.703113,"kind":"monument","img":"https://commons.wikimedia.org/wiki/Special:FilePath/Palazzo_Orfini_-_Foligno_04.jpg?width=800","desc":"Palazzo Orfini di Foligno si trova in piazza della Repubblica, opposto al Duomo e al palazzo delle Canoniche, confinante col palazzo Comunale.","wiki":"https://it.wikipedia.org/wiki/Palazzo_Orfini","wd":"https://www.wikidata.org/wiki/Q3890569"},{"id":"osm:way/261548140","name":"Poggio Gramignano","lat":42.550145,"lng":12.309987,"kind":"heritage","img":"https://commons.wikimedia.org/wiki/Special:FilePath/LugnanoInTeverinaPanorama8.jpg?width=800","desc":"Lugnano in Teverina è un comune italiano di 1 390 abitanti della provincia di Terni in Umbria.\nIl comune di Lugnano in Teverina, geograficamente nella Valle del Tevere, fa parte dell'Associazione nazionale città dell'olio e del club I borghi più belli d'Italia.","wiki":"https://it.wikipedia.org/wiki/Lugnano_in_Teverina","wd":"https://www.wikidata.org/wiki/Q10823"},{"id":"osm:way/288165548","name":"Cattedrale dei Santi Gervasio e Protasio","lat":42.952467,"lng":12.00419,"kind":"church","img":"https://commons.wikimedia.org/wiki/Special:FilePath/Citt%C3%A0_della_Pieve%2C_concattedrale_dei_Santi_Gervasio_e_Protasio_-_Facciata_e_campanile.jpg?width=800","desc":"La concattedrale dei Santi Gervasio e Protasio è il principale luogo di culto cattolico di Città della Pieve, concattedrale dell'arcidiocesi di Perugia-Città della Pieve.","wiki":"https://it.wikipedia.org/wiki/Duomo_di_Citt%C3%A0_della_Pieve","wd":"https://www.wikidata.org/wiki/Q3041407"},{"id":"osm:way/36994747","name":"Basilica di Santa Chiara","lat":43.068913,"lng":12.617093,"kind":"church","img":"https://commons.wikimedia.org/wiki/Special:FilePath/Santa_Chiara_%28Assisi%29_01.JPG?width=800","desc":"La basilica di Santa Chiara è un importante luogo di culto del centro storico di Assisi.","wiki":"https://it.wikipedia.org/wiki/Basilica_di_Santa_Chiara","wd":"https://www.wikidata.org/wiki/Q810106"},{"id":"osm:way/370705650","name":"Necropoli Etrusca di Cannicella","lat":42.715046,"lng":12.117418,"kind":"heritage","desc":"La necropoli di Cannicella si trova ad Orvieto, sul versante meridionale della rupe. La Necropoli del Crocifisso del Tufo occupa invece quello settentrionale.","wiki":"https://it.wikipedia.org/wiki/Necropoli_di_Cannicella"},{"id":"osm:way/430963783","name":"Museo della ferrovia Spoleto Norcia","lat":42.744783,"lng":12.738335,"kind":"museum","img":"https://commons.wikimedia.org/wiki/Special:FilePath/Ferrovia_Spoleto_-_Norcia._Stazione_di_Spoleto.JPG?width=800","desc":"La stazione di Spoleto Città è stata una stazione ferroviaria posta lungo la ex linea ferroviaria a scartamento ridotto Spoleto-Norcia, a servizio del comune di Spoleto.","wiki":"https://it.wikipedia.org/wiki/Stazione_di_Spoleto_Citt%C3%A0","wd":"https://www.wikidata.org/wiki/Q16609924"},{"id":"osm:way/431847387","name":"Teatro Romano","lat":42.733171,"lng":12.73504,"kind":"heritage","img":"https://commons.wikimedia.org/wiki/Special:FilePath/Spoleto002.jpg?width=800","desc":"Il Teatro romano è un edificio teatrale di Spoleto (Spoletium), risalente al I secolo a.C. Ha un diametro di 114,40 metri, mentre la cavea ne misura circa 70. Si trova all'interno del Complesso monumentale di Sant'Agata.","wiki":"https://it.wikipedia.org/wiki/Teatro_romano_di_Spoleto","wd":"https://www.wikidata.org/wiki/Q3982362"},{"id":"osm:way/439163149","name":"San Giacomo maggiore","lat":42.794489,"lng":12.750187,"kind":"church","img":"https://commons.wikimedia.org/wiki/Special:FilePath/Chiesa_di_San_Giacomo_%28San_Giacomo%2C_Spoleto%29.JPG?width=800","desc":"San Giacomo è una frazione del comune di Spoleto, in provincia di Perugia, posta ad un'altitudine di 239 m s.l.m. ed abitata da 1.983 residenti (dati Istat, 2001 [1] Archiviato il 5 marzo 2016 in Internet Archive.).","wiki":"https://it.wikipedia.org/wiki/San_Giacomo_(Spoleto)"},{"id":"osm:way/44184811","name":"Orvieto Cathedral","lat":42.717008,"lng":12.113595,"kind":"church","img":"https://commons.wikimedia.org/wiki/Special:FilePath/Duomo_di_Orvieto_2014.JPG?width=800","desc":"La basilica cattedrale di Santa Maria Assunta è il principale luogo di culto cattolico di Orvieto, in provincia di Terni, chiesa madre della diocesi di Orvieto-Todi e capolavoro dell'architettura gotica-romanica dell'Italia Centrale. Nel gennaio del 1889 papa Leone XIII l'ha elevata alla dignità di basilica minore.","wiki":"https://it.wikipedia.org/wiki/Duomo_di_Orvieto","wd":"https://www.wikidata.org/wiki/Q10924"},{"id":"osm:way/44394088","name":"Carsulae","lat":42.639922,"lng":12.557503,"kind":"heritage","img":"https://commons.wikimedia.org/wiki/Special:FilePath/Carsulae.jpg?width=800","desc":"Carsulae era un'antica città di epoca romana posta in Umbria lungo il ramo occidentale della via Flaminia, tra Narnia (oggi Narni) e Mevania (oggi Bevagna). Si trova nel comune di Terni, a poca distanza da San Gemini.","wiki":"https://it.wikipedia.org/wiki/Carsulae","wd":"https://www.wikidata.org/wiki/Q519033"},{"id":"osm:way/453333148","name":"Tempio romano di Villa San Silvestro, area sud","lat":42.650156,"lng":13.0555,"kind":"heritage","img":"https://commons.wikimedia.org/wiki/Special:FilePath/Particolare_della_sezione_archeologica.JPG?width=800","desc":"Il tempio romano di Villa San Silvestro è un antico tempio romano  i cui resti sono stati rimessi in luce presso la chiesa di San Silvestro a Villa San Silvestro, frazione di Cascia, in provincia di Perugia.","wiki":"https://it.wikipedia.org/wiki/Tempio_romano_di_Villa_San_Silvestro","wd":"https://www.wikidata.org/wiki/Q16612742"},{"id":"osm:way/462113835","name":"SCAVO ARCHEOLOGICO DI SCOPPIETO","lat":42.72474,"lng":12.295472,"kind":"heritage","img":"https://commons.wikimedia.org/wiki/Special:FilePath/ScoppietoBaschiUmbria3.jpg?width=800","desc":"Scoppieto è una frazione del comune di Baschi (TR).","wiki":"https://it.wikipedia.org/wiki/Scoppieto","wd":"https://www.wikidata.org/wiki/Q2224139"},{"id":"osm:way/477456377","name":"Anfiteatro Romano","lat":42.738466,"lng":12.739008,"kind":"heritage","img":"https://commons.wikimedia.org/wiki/Special:FilePath/Anfiteatro_romano_%284%29.JPG?width=800","desc":"Il complesso monumentale dell'Anfiteatro è situato in un'ampia zona a nord di Spoleto, fuori dalla prima cinta muraria, sulla sponda sinistra del torrente Tessino. Occupa un'area di circa 17.000 m², una città nella città, che comprende i resti di un anfiteatro romano, tre grandi chiostri, giardini, cortili e due ex monasteri con le rispettive chiese: la chiesa dei SS. Stefano e Tommaso e la chiesa di San Gregorio Minore o de griptis.","wiki":"https://it.wikipedia.org/wiki/Complesso_monumentale_dell'Anfiteatro","wd":"https://www.wikidata.org/wiki/Q112054237"},{"id":"osm:way/477680964","name":"Casina dell'ippocastano","lat":42.730931,"lng":12.733948,"kind":"attraction","img":"https://commons.wikimedia.org/wiki/Special:FilePath/Casina_dell%27Ippocasatano_1_%283%29.JPG?width=800","desc":"La Casina degli ippocastani, o Casina dell'ippocastano, è una piccola costruzione in stile alpino eretta intorno al 1880; si trova immersa nei giardini pubblici del centro storico di Spoleto, nel crocevia tra via Martiri della resistenza e Viale Matteotti, davanti alla Spoletosfera.\nVenne costruita per essere punto di ritrovo e di ristoro durante le attività ricreative che si svolgevano ai giardini pubblici, la cui realizzazione era iniziata nel 1876.","wiki":"https://it.wikipedia.org/wiki/Casina_degli_ippocastani","wd":"https://www.wikidata.org/wiki/Q19595386"},{"id":"osm:way/549769846","name":"Chiesa di Santa Maria Assunta","lat":42.584367,"lng":12.767467,"kind":"church","img":"https://commons.wikimedia.org/wiki/Special:FilePath/ArroneSantaMariaAssunta6.jpg?width=800","desc":"La chiesa di Santa Maria Assunta è un edificio di culto cattolico situato ad Arrone.","wiki":"https://it.wikipedia.org/wiki/Chiesa_di_Santa_Maria_Assunta_(Arrone)","wd":"https://www.wikidata.org/wiki/Q25410206"},{"id":"osm:way/549954889","name":"Ruderi del castello dei Trinci di Rasiglia","lat":42.960827,"lng":12.860315,"kind":"castle","img":"https://commons.wikimedia.org/wiki/Special:FilePath/Ruderi_del_mastio_del_castello_di_Rasiglia.jpg?width=800","desc":"La rocca di Rasiglia è una rocca ubicata a Foligno, nella frazione di Rasiglia.","wiki":"https://it.wikipedia.org/wiki/Rocca_di_Rasiglia","wd":"https://www.wikidata.org/wiki/Q108067957"},{"id":"osm:way/550738196","name":"Castel San Giovanni","lat":42.835347,"lng":12.705257,"kind":"castle","img":"https://commons.wikimedia.org/wiki/Special:FilePath/Tower_of_castel_san_giovanni_castel_ritaldi.jpg?width=800","desc":"Castel San Giovanni è una frazione del comune di Castel Ritaldi, in provincia di Perugia, situata a 4 km dal capoluogo e ad un'altitudine di 225 m s.l.m.\nIl paese si trova nella pianura di Spoleto, in fondo alla Valle Umbra, tra i centri di Trevi e Campello.","wiki":"https://it.wikipedia.org/wiki/Castel_San_Giovanni_(Castel_Ritaldi)","wd":"https://www.wikidata.org/wiki/Q3662126"},{"id":"osm:way/628098500","name":"Palazzo Gazzoli","lat":42.561372,"lng":12.645023,"kind":"attraction","img":"https://commons.wikimedia.org/wiki/Special:FilePath/Terni_-_Palazzo_Gazzoli_-_202209041018_3.jpg?width=800","desc":"Palazzo Gazzoli è un palazzo storico di Terni risalente al XVIII secolo.\nCostruito nel 1795 su richiesta del diacono e futuro cardinale Luigi Gazzoli, membro della potente famiglia ternana dei Gazzoli, il palazzo fu progettato dall'architetto romano Andrea Vici sui resti di antichi edifici romani tra cui un impianto termale riportato alla luce nel corso degli ultimi restauri.","wiki":"https://it.wikipedia.org/wiki/Palazzo_Gazzoli","wd":"https://www.wikidata.org/wiki/Q27989571"},{"id":"osm:way/648492156","name":"Museo Archeologico","lat":42.558772,"lng":12.652574,"kind":"museum","img":"https://commons.wikimedia.org/wiki/Special:FilePath/Terni_-_Museo_archeologico_%22Claudia_Giontella%22_-_CAOS_%28Centro_Arti_Opificio_Siri%29_-_202209032300.jpg?width=800","desc":"Il Museo archeologico di Terni fondato nel 2004 ed intitolato all’archeologa Claudia Giontella sorge dal recupero dell’area industriale SIRI (Società Italiana Ricerche Industriali), riconvertita oggi nel complesso del CAOS – Centro Arti Opificio Siri.\nll Museo Archeologico di Terni è intitolato all’archeologa Claudia Giontella, che ha avuto un ruolo determinante nel suo allestimento.","wiki":"https://it.wikipedia.org/wiki/Museo_archeologico_di_Terni","wd":"https://www.wikidata.org/wiki/Q778186"},{"id":"osm:way/651032846","name":"Badia dei 7 frati","lat":42.989325,"lng":12.204802,"kind":"church","img":"https://commons.wikimedia.org/wiki/Special:FilePath/Palazzo_e_abbazia_7_frati_%28Perugia%29.jpg?width=800","desc":"L'abbazia dei Sette Frati è situata fuori del borgo di Pietrafitta, in provincia di Perugia, sulla strada che conduce a Castiglion Fosco e fu il più significativo insediamento monastico della zona. È dedicata ai sette fratelli martiri romani, figli di santa Felicita: Gennaro, Felice, Filippo, Silano, Alessandro, Vitale e Marziale, vissuti nel II secolo.","wiki":"https://it.wikipedia.org/wiki/Abbazia_dei_Sette_Frati","wd":"https://www.wikidata.org/wiki/Q21187602"},{"id":"osm:way/689195507","name":"Ponte delle Torri","lat":42.732999,"lng":12.743846,"kind":"attraction","img":"https://commons.wikimedia.org/wiki/Special:FilePath/Spoleto023.jpg?width=800","desc":"Il ponte delle Torri è un ponte ad arco derivato da un acquedotto romano sito a Spoleto.","wiki":"https://it.wikipedia.org/wiki/Ponte_delle_Torri","wd":"https://www.wikidata.org/wiki/Q19359439"},{"id":"osm:way/775377800","name":"Porta Conca","lat":43.115037,"lng":12.383569,"kind":"castle","img":"https://commons.wikimedia.org/wiki/Special:FilePath/Perugiaarcoetrusco.jpg?width=800","desc":"Le mura di Perugia sono l'antica cerchia difensiva della città. La città possiede due cinte murarie.","wiki":"https://it.wikipedia.org/wiki/Mura_di_Perugia","wd":"https://www.wikidata.org/wiki/Q3328006"},{"id":"osm:way/84301937","name":"Palazzo dei Priori","lat":43.111565,"lng":12.388438,"kind":"attraction","img":"https://commons.wikimedia.org/wiki/Special:FilePath/Palazzo_dei_priori.jpg?width=800","desc":"Il Palazzo dei Priori, o comunale, è uno dei migliori esempi d'Italia di palazzo pubblico dell'età comunale. Sorge nella centrale Piazza IV Novembre a Perugia, in Umbria.","wiki":"https://it.wikipedia.org/wiki/Palazzo_dei_Priori_(Perugia)","wd":"https://www.wikidata.org/wiki/Q2004573"},{"id":"osm:way/88500566","name":"Pozzo di San Patrizio","lat":42.722537,"lng":12.120446,"kind":"attraction","img":"https://commons.wikimedia.org/wiki/Special:FilePath/Pozzo_di_San_Patrizio_Oriveto.JPG?width=800","desc":"Lo storico pozzo di San Patrizio è una struttura costruita da Antonio da Sangallo il Giovane a Orvieto tra il 1527 e il 1537 per volere del papa Clemente VII, reduce dal Sacco di Roma e desideroso di tutelarsi nell'eventualità che la città in cui si era ritirato fosse assediata. Pertanto fu progettato proprio per fornire acqua in caso di calamità o assedio.","wiki":"https://it.wikipedia.org/wiki/Pozzo_di_San_Patrizio","wd":"https://www.wikidata.org/wiki/Q671850"},{"id":"osm:way/88522234","name":"Palazzo Comunale","lat":42.718126,"lng":12.108204,"kind":"attraction","wiki":"https://it.wikipedia.org/wiki/Palazzi_medievali_di_Orvieto","wd":"https://www.wikidata.org/wiki/Q3889462"},{"id":"osm:way/88522242","name":"Palazzo Soliano","lat":42.716523,"lng":12.113914,"kind":"attraction","wiki":"https://it.wikipedia.org/wiki/Palazzi_medievali_di_Orvieto","wd":"https://www.wikidata.org/wiki/Q3889462"},{"id":"osm:way/88522243","name":"Palazzo dei Sette","lat":42.718659,"lng":12.110545,"kind":"attraction","wiki":"https://it.wikipedia.org/wiki/Palazzi_medievali_di_Orvieto","wd":"https://www.wikidata.org/wiki/Q3889462"},{"id":"osm:way/88522258","name":"Palazzo del Capitano del Popolo","lat":42.719375,"lng":12.110975,"kind":"attraction","wiki":"https://it.wikipedia.org/wiki/Palazzi_medievali_di_Orvieto","wd":"https://www.wikidata.org/wiki/Q3889462"},{"id":"wd:Q1000040","name":"Eremo delle Carceri","lat":43.06311,"lng":12.65191,"kind":"church","img":"https://commons.wikimedia.org/wiki/Special:FilePath/Eremo%20delle%20Carceri%2001.JPG?width=800","desc":"The Eremo delle Carceri (\"Sanctuary of Eremo delle Carceri\") is a hermitage complex located 791 metres (2,595 ft) above sea level in a steep forest gorge upon Monte Subasio, in Umbria, in central Italy, four kilometers above Assisi.","wiki":"https://en.wikipedia.org/wiki/Eremo_delle_Carceri","wd":"https://www.wikidata.org/wiki/Q1000040"},{"id":"wd:Q100137721","name":"Palazzo della Provincia e della Prefettura","lat":43.10864,"lng":12.38825,"kind":"palace","img":"https://commons.wikimedia.org/wiki/Special:FilePath/Palazzo%20della%20Provincia%20e%20Prefettura.jpg?width=800","desc":"The Palazzo della Provincia e della Prefettura is a public palace of Perugia built over the ruin of the Rocca Paolina.","wiki":"https://en.wikipedia.org/wiki/Palazzo_della_Provincia_e_della_Prefettura","wd":"https://www.wikidata.org/wiki/Q100137721"},{"id":"wd:Q100273162","name":"Roman theater in Ocriculum","lat":42.41538,"lng":12.46527,"kind":"heritage","img":"https://commons.wikimedia.org/wiki/Special:FilePath/Ocriculum%2C%20Italy%20%2844982094661%29.jpg?width=800","wd":"https://www.wikidata.org/wiki/Q100273162"},{"id":"wd:Q101358574","name":"Santa Teresa degli Scalzi","lat":43.112372,"lng":12.384942,"kind":"church","img":"https://commons.wikimedia.org/wiki/Special:FilePath/1-%20S.TERESA%20DEGLI%20SCALZI%20-%20Facciata.jpg?width=800","desc":"La chiesa di Santa Teresa degli Scalzi è un edificio religioso situato a Perugia alla fine di via dei Priori. Nell'ex convento ebbero sede i Carmelitani scalzi fino al 1889, successivamente è stato demanializzato e adibito a scuola.","wiki":"https://it.wikipedia.org/wiki/Chiesa_ed_ex_monastero_di_Santa_Teresa_degli_Scalzi","wd":"https://www.wikidata.org/wiki/Q101358574"},{"id":"wd:Q101359353","name":"chiesa ed ex monastero di San Fiorenzo","lat":43.111538899667,"lng":12.391748294951,"kind":"church","img":"https://commons.wikimedia.org/wiki/Special:FilePath/San%20Fiorenzo%20%28Perugia%29.jpg?width=800","desc":"La Chiesa di San Fiorenzo è un edificio religioso di Perugia ubicato nel borgo di Porta Sole in via Alessi. È stato affidato in comodato d'uso dalla diocesi di Perugia alla rappresentanza rumena della chiesa ortodossa presente in città.","wiki":"https://it.wikipedia.org/wiki/Chiesa_ed_ex_monastero_di_San_Fiorenzo","wd":"https://www.wikidata.org/wiki/Q101359353"},{"id":"wd:Q101552218","name":"san Francesco di Piazza","lat":43.5001249,"lng":12.9404128,"kind":"church","img":"https://commons.wikimedia.org/wiki/Special:FilePath/Arcevia%20-%20Chiesa%20di%20san%20Francesco%20di%20Piazza%20-%202023-09-23%2000-59-58%20001.JPG?width=800","wd":"https://www.wikidata.org/wiki/Q101552218"},{"id":"wd:Q101575492","name":"church of san Quirico","lat":43.44753,"lng":13.01553,"kind":"church","img":"https://commons.wikimedia.org/wiki/Special:FilePath/Esterno%20della%20Chiesa%20di%20San%20Quirico%20a%20Serra%20San%20Quirico.jpg?width=800","desc":"La chiesa di San Quirico, nota anche come chiesa dei Santi Quirico e Giulitta, è la parrocchiale di Serra San Quirico, in provincia di Ancona e arcidiocesi di Camerino-San Severino Marche; è a capo della vicaria di Serra San Quirico.","wiki":"https://it.wikipedia.org/wiki/Chiesa_di_San_Quirico_(Serra_San_Quirico)","wd":"https://www.wikidata.org/wiki/Q101575492"},{"id":"wd:Q101584444","name":"Sant'Antonio Abate (Castelleone di Suasa)","lat":43.608222222222,"lng":12.976722222222,"kind":"church","img":"https://commons.wikimedia.org/wiki/Special:FilePath/Castelleone%20di%20Suasa%205.jpg?width=800","wd":"https://www.wikidata.org/wiki/Q101584444"},{"id":"wd:Q102332093","name":"Convent of Sant'Antonio di Padova","lat":43.013341296136,"lng":12.489624087689,"kind":"church","desc":"Il Convento di Sant'Antonio di Padova è un edificio religioso di Bettona, in provincia di Perugia. L'edificio fu scelto dai Francescani dell’Osservanza per fondarvi il loro convento, punto di riferimento per i fedeli del territorio.","wiki":"https://it.wikipedia.org/wiki/Convento_di_Sant'Antonio_di_Padova_(Bettona)","wd":"https://www.wikidata.org/wiki/Q102332093"},{"id":"wd:Q102396354","name":"San Giacomo Apostolo","lat":42.372520853177,"lng":13.255487401822,"kind":"church","img":"https://commons.wikimedia.org/wiki/Special:FilePath/Scoppito%20-%20Chiesa%20di%20San%20Giacomo%20Apostolo%2001.jpg?width=800","wd":"https://www.wikidata.org/wiki/Q102396354"},{"id":"wd:Q102396444","name":"San Bartolomeo Apostolo","lat":42.361622813433,"lng":13.251743317901,"kind":"church","img":"https://commons.wikimedia.org/wiki/Special:FilePath/Scoppito%20-%20Chiesa%20di%20San%20Bartolomeo%20Apostolo%2006.jpg?width=800","wd":"https://www.wikidata.org/wiki/Q102396444"},{"id":"wd:Q102396780","name":"San Valentino","lat":42.374885,"lng":13.254631,"kind":"church","img":"https://commons.wikimedia.org/wiki/Special:FilePath/Scoppito%20-%20Chiesa%20di%20San%20Valentino%2005.jpg?width=800","wd":"https://www.wikidata.org/wiki/Q102396780"},{"id":"wd:Q102396858","name":"Santa Maria in Fontepianura","lat":42.36689073303,"lng":13.261773295989,"kind":"church","img":"https://commons.wikimedia.org/wiki/Special:FilePath/Scoppito%20-%20Chiesa%20di%20Santa%20Maria%20in%20Fontepianura%2001.jpg?width=800","wd":"https://www.wikidata.org/wiki/Q102396858"},{"id":"wd:Q102396936","name":"Sant'Andrea Apostolo","lat":42.363187348454,"lng":13.260352611658,"kind":"church","img":"https://commons.wikimedia.org/wiki/Special:FilePath/Scoppito%20-%20Chiesa%20di%20Sant%27Andrea%20Apostolo%2001.jpg?width=800","wd":"https://www.wikidata.org/wiki/Q102396936"},{"id":"wd:Q10300734","name":"San Francesco","lat":43.351731,"lng":12.576454,"kind":"church","img":"https://commons.wikimedia.org/wiki/Special:FilePath/Chiesa%20di%20San%20Francesco%20-%20esterno.jpg?width=800","desc":"San Francesco is a Gothic-style, Roman Catholic church in the lower town of Gubbio, Umbria, in Italy.","wiki":"https://en.wikipedia.org/wiki/San_Francesco%2C_Gubbio","wd":"https://www.wikidata.org/wiki/Q10300734"},{"id":"wd:Q104350016","name":"Oratorio della Confraternita di Sant'Antonio Abate","lat":43.114669,"lng":12.394472,"kind":"church","img":"https://commons.wikimedia.org/wiki/Special:FilePath/Volta%20Oratorio%20S.Antonio%20Abbate%20PG%20Francesco%20Appiani%20JPEG.jpg?width=800","desc":"L’oratorio della Confraternita di Sant'Antonio Abate è situato a Perugia nel Borgo di Sant'Antonio (Corso Bersaglieri n. 92).","wiki":"https://it.wikipedia.org/wiki/Oratorio_della_Confraternita_di_Sant'Antonio_Abate","wd":"https://www.wikidata.org/wiki/Q104350016"},{"id":"wd:Q104585748","name":"Santa Chiara","lat":42.402729674461,"lng":12.86489495502,"kind":"church","img":"https://commons.wikimedia.org/wiki/Special:FilePath/Chiesa%20di%20Santa%20Chiara%2C%20Rieti%20-%20facciata%2002.jpg?width=800","desc":"Santa Chiara is a former Roman Catholic church and convent in the city of Rieti, province of Rieti, region of Lazio, Italy.","wiki":"https://en.wikipedia.org/wiki/Santa_Chiara%2C_Rieti","wd":"https://www.wikidata.org/wiki/Q104585748"},{"id":"wd:Q104617426","name":"San Marziale","lat":43.350875,"lng":12.583422222222,"kind":"church","img":"https://commons.wikimedia.org/wiki/Special:FilePath/San%20Marziale%20%28Gubbio%29%2002.jpg?width=800","desc":"La Chiesa di San Marziale di Gubbio è una piccola chiesetta situata all'estremità del centro storico di Gubbio, a pochi passi dalla Porta Vehia, ultimo resto delle originarie mura romane, rimaneggiate in epoca medioevale.\nRisulta esistente già in epoca alto medievale, documentata sin dal XII secolo come Chiesa di S.Andrea.","wiki":"https://it.wikipedia.org/wiki/Chiesa_di_San_Marziale_(Gubbio)","wd":"https://www.wikidata.org/wiki/Q104617426"},{"id":"wd:Q104867609","name":"Castello di San Michele in Teverina","lat":42.600435,"lng":12.173184,"kind":"castle","img":"https://commons.wikimedia.org/wiki/Special:FilePath/Castello%20di%20San%20Michele%20in%20Teverina%20from%20Piazza%20del%20Castello.jpg?width=800","desc":"The Castle of San Michele (Italian: Castello di San Michele), once known as the Castel di Piero, was built in the Lazio region of Italy during the 12th century. It is located in the village of San Michele in Teverina, Civitella d'Agliano, Viterbo.","wiki":"https://en.wikipedia.org/wiki/Castello_di_San_Michele_in_Teverina","wd":"https://www.wikidata.org/wiki/Q104867609"},{"id":"wd:Q105318242","name":"Piazza VII Aprile","lat":42.5618973,"lng":12.9631644,"kind":"square","img":"https://commons.wikimedia.org/wiki/Special:FilePath/Leonessa%20Zentrum.JPG?width=800","wd":"https://www.wikidata.org/wiki/Q105318242"},{"id":"wd:Q105907010","name":"San Giovanni","lat":43.1118242,"lng":12.7898456,"kind":"church","img":"https://commons.wikimedia.org/wiki/Special:FilePath/Chiesa%20di%20San%20Giovanni%20Nocera%20Umbra.JPG?width=800","wd":"https://www.wikidata.org/wiki/Q105907010"},{"id":"wd:Q105907050","name":"Santa Chiara","lat":43.1119317,"lng":12.7891825,"kind":"church","img":"https://commons.wikimedia.org/wiki/Special:FilePath/Chiesa%20di%20Santa%20Chiara%20Nocera%20Umbra.JPG?width=800","wd":"https://www.wikidata.org/wiki/Q105907050"},{"id":"wd:Q105962558","name":"Monumento ai Caduti","lat":43.1133757,"lng":12.788671,"kind":"monument","img":"https://commons.wikimedia.org/wiki/Special:FilePath/Monumento%20ai%20caduti%20della%20Prima%20Guerra%20Mondiale%203.JPG?width=800","wd":"https://www.wikidata.org/wiki/Q105962558"},{"id":"wd:Q105962584","name":"Castello di Salmaregia","lat":43.1893,"lng":12.854687,"kind":"castle","img":"https://commons.wikimedia.org/wiki/Special:FilePath/All%27ombra%20del%20Castello.JPG?width=800","wd":"https://www.wikidata.org/wiki/Q105962584"},{"id":"wd:Q105962668","name":"castle of Villa Postignano","lat":43.1060297,"lng":12.7396538,"kind":"castle","img":"https://commons.wikimedia.org/wiki/Special:FilePath/Castello%20di%20Villa%20Postignano%20%28Interno%29.jpg?width=800","wd":"https://www.wikidata.org/wiki/Q105962668"},{"id":"wd:Q105962775","name":"San Filippo","lat":43.0912178,"lng":12.8200735,"kind":"church","img":"https://commons.wikimedia.org/wiki/Special:FilePath/Chiesa%20di%20Acciano.jpg?width=800","wd":"https://www.wikidata.org/wiki/Q105962775"},{"id":"wd:Q105963053","name":"monument to Fulvio Sbarretti","lat":43.1110369,"lng":12.8534349,"kind":"monument","img":"https://commons.wikimedia.org/wiki/Special:FilePath/Monumento%20a%20F.%20Sbarretti%20-%20Bagnara%20-%20Nocera%20Umbra.jpg?width=800","wd":"https://www.wikidata.org/wiki/Q105963053"},{"id":"wd:Q106322055","name":"Monumento ai caduti","lat":43.4773585,"lng":13.1198165,"kind":"monument","img":"https://commons.wikimedia.org/wiki/Special:FilePath/Monumento%20dei%20caduti%20di%20Maiolati%20Spontini.jpg?width=800","wd":"https://www.wikidata.org/wiki/Q106322055"},{"id":"wd:Q106396145","name":"Santissimo Sacramento","lat":42.690030193646,"lng":12.546310561514,"kind":"church","img":"https://commons.wikimedia.org/wiki/Special:FilePath/AcquaspartaSantissimoSacramento4.jpg?width=800","wd":"https://www.wikidata.org/wiki/Q106396145"},{"id":"wd:Q106414419","name":"chiesa della Madonna Todina","lat":42.691910097896,"lng":12.546962584139,"kind":"church","img":"https://commons.wikimedia.org/wiki/Special:FilePath/AcquaspartaChiesaDellaMadonnaTodina2.jpg?width=800","wd":"https://www.wikidata.org/wiki/Q106414419"},{"id":"wd:Q106427047","name":"San Giovanni Battista","lat":42.699573412803,"lng":12.573998855541,"kind":"church","img":"https://commons.wikimedia.org/wiki/Special:FilePath/CasteldelmonteAcquaspartaSanGiovanniBattista3.jpg?width=800","wd":"https://www.wikidata.org/wiki/Q106427047"},{"id":"wd:Q106427124","name":"San Giuseppe","lat":42.690761593951,"lng":12.546665162119,"kind":"church","img":"https://commons.wikimedia.org/wiki/Special:FilePath/AcquaspartaSanGiuseppe4.jpg?width=800","wd":"https://www.wikidata.org/wiki/Q106427124"},{"id":"wd:Q106449427","name":"Santa Lucia di Burchiano","lat":42.709619939654,"lng":12.55292172938,"kind":"church","img":"https://commons.wikimedia.org/wiki/Special:FilePath/AcquaspartaSantaLuciaDiBurchiano03.jpg?width=800","wd":"https://www.wikidata.org/wiki/Q106449427"},{"id":"wd:Q106468435","name":"San Pancrazio","lat":42.70474,"lng":11.9796168,"kind":"church","img":"https://commons.wikimedia.org/wiki/Special:FilePath/CastelGiorgioChiesaDiSanPancrazio3.jpg?width=800","desc":"La chiesa di San Pancrazio è la parrocchiale di Castel Giorgio, in provincia di Terni e diocesi di Orvieto-Todi; fa parte del vicariato di Santa Cristina.","wiki":"https://it.wikipedia.org/wiki/Chiesa_di_San_Pancrazio_(Castel_Giorgio)","wd":"https://www.wikidata.org/wiki/Q106468435"},{"id":"wd:Q106507191","name":"Santa Maria Maddalena","lat":43.2082,"lng":12.0712864,"kind":"church","img":"https://commons.wikimedia.org/wiki/Special:FilePath/TuoroSulTrasimenoSantaMariaMaddalena1.jpg?width=800","desc":"La chiesa di Santa Maria Maddalena è la parrocchiale di Tuoro sul Trasimeno, in provincia di Perugia e arcidiocesi di Perugia-Città della Pieve; fa parte della zona pastorale Trasimeno Est.","wiki":"https://it.wikipedia.org/wiki/Chiesa_di_Santa_Maria_Maddalena_(Tuoro_sul_Trasimeno)","wd":"https://www.wikidata.org/wiki/Q106507191"},{"id":"wd:Q106517032","name":"Santa Maria Assunta Church","lat":43.0234668,"lng":12.0700955,"kind":"church","img":"https://commons.wikimedia.org/wiki/Special:FilePath/PacianoSantaMariaAssunta.JPG?width=800","desc":"La chiesa del Santissimo Salvatore, nota anche come chiesa di Santa Maria Assunta, è la parrocchiale di Paciano, in provincia di Perugia e arcidiocesi di Perugia-Città della Pieve; fa parte della zona pastorale VII.","wiki":"https://it.wikipedia.org/wiki/Chiesa_del_Santissimo_Salvatore_e_Maria_Santissima_Assunta","wd":"https://www.wikidata.org/wiki/Q106517032"},{"id":"wd:Q106540866","name":"San Gregorio Magno","lat":43.36317,"lng":12.32696,"kind":"church","img":"https://commons.wikimedia.org/wiki/Special:FilePath/Montone%2C%20collegiata%2C%2001.JPG?width=800","desc":"La chiesa di San Gregorio Magno, nota anche come chiesa di Santa Maria Assunta, è la parrocchiale di Montone, in provincia di Perugia e diocesi di Città di Castello; fa parte della zona pastorale Sud.","wiki":"https://it.wikipedia.org/wiki/Chiesa_di_San_Gregorio_Magno_(Montone)","wd":"https://www.wikidata.org/wiki/Q106540866"},{"id":"wd:Q106662131","name":"Beldiletto Castle","lat":43.077883,"lng":13.085943,"kind":"castle","img":"https://commons.wikimedia.org/wiki/Special:FilePath/Cammino%20Francescano%20della%20Marca%2C%20Valfornace%2C%20Pievebovigliana%2C%20Castello%20di%20Beldiletto%2001.jpg?width=800","desc":"Il Castello di Beldiletto è un maniero quattrocentesco che si trova nella frazione di Pievebovigliana,comune di Valfornace nella provincia di Macerata. Appartenne ai Da Varano, signori di Camerino.","wiki":"https://it.wikipedia.org/wiki/Castello_di_Beldiletto","wd":"https://www.wikidata.org/wiki/Q106662131"},{"id":"wd:Q106766768","name":"Abbazia di San Savino","lat":43.524144691137,"lng":13.252089965413,"kind":"church","img":"https://commons.wikimedia.org/wiki/Special:FilePath/Resti%20San%20Savino.jpg?width=800","desc":"L’abbazia di San Savino,  che secondo la tradizione sarebbe stata costruita nell’Alto Medioevo, si trova nel comune di Jesi nella zona del Campo Boario e di cui restano solo evidenze archeologiche.","wiki":"https://it.wikipedia.org/wiki/Abbazia_di_San_Savino_di_Jesi","wd":"https://www.wikidata.org/wiki/Q106766768"},{"id":"wd:Q107214445","name":"Fortezza Albornoz","lat":42.72088,"lng":12.120615,"kind":"castle","img":"https://commons.wikimedia.org/wiki/Special:FilePath/Orvieto%20Fortezza%20Albornoz%20001.jpg?width=800","desc":"La Rocca di Albornoz (o Fortezza Albornoz) è un edificio militare situato ad Orvieto e a cui si può accedere da Piazza Cahen. Oggi (2022) ospita i principali giardini pubblici cittadini.","wiki":"https://it.wikipedia.org/wiki/Fortezza_Albornoz","wd":"https://www.wikidata.org/wiki/Q107214445"},{"id":"wd:Q107226859","name":"Santa Maria Col de' Venti","lat":43.08031,"lng":13.03164,"kind":"church","img":"https://commons.wikimedia.org/wiki/Special:FilePath/Muccia%2C%20Santuario%20della%20Madonna%20Col%20de%27%20Venti%2002.jpg?width=800","wd":"https://www.wikidata.org/wiki/Q107226859"},{"id":"wd:Q107314170","name":"Castello di Fighine","lat":42.88681,"lng":11.9152,"kind":"castle","img":"https://commons.wikimedia.org/wiki/Special:FilePath/FighineSanCascianoDeiBagniCastello.JPG?width=800","wd":"https://www.wikidata.org/wiki/Q107314170"},{"id":"wd:Q107439260","name":"Santa Maria delle Grazie, Foce di Amelia","lat":42.56815,"lng":12.45575,"kind":"church","img":"https://commons.wikimedia.org/wiki/Special:FilePath/FoceAmeliaSantuarioSantaMariaDelleGrazie.JPG?width=800","desc":"Santa Maria delle Grazie is a Roman Catholic church located in the hamlet of Foce, near the town of Amelia, in the Province of Terni, region of Umbria, Italy. It presently houses monks from the cistercian congregation of St Bernard.","wiki":"https://en.wikipedia.org/wiki/Santa_Maria_delle_Grazie%2C_Foce_di_Amelia","wd":"https://www.wikidata.org/wiki/Q107439260"},{"id":"wd:Q107510111","name":"Palazzo Bonfranceschi","lat":43.16438,"lng":13.2375,"kind":"palace","img":"https://commons.wikimedia.org/wiki/Special:FilePath/Palazzo%20Bonfranceschi%201.jpg?width=800","wd":"https://www.wikidata.org/wiki/Q107510111"},{"id":"wd:Q107614270","name":"Sala Frau","lat":42.734774507425,"lng":12.736931140213,"kind":"attraction","img":"https://commons.wikimedia.org/wiki/Special:FilePath/Sala%20Frau.%20Spoleto.jpg?width=800","wd":"https://www.wikidata.org/wiki/Q107614270"},{"id":"wd:Q107719354","name":"San Giovanni","lat":43.4768,"lng":13.1187,"kind":"church","img":"https://commons.wikimedia.org/wiki/Special:FilePath/Chiesa%20di%20San%20Giovanni%20-%20Maiolati%20Spontini%2001.jpg?width=800","wd":"https://www.wikidata.org/wiki/Q107719354"},{"id":"wd:Q107719405","name":"Parco Colle Celeste","lat":43.4777,"lng":13.1225,"kind":"park","img":"https://commons.wikimedia.org/wiki/Special:FilePath/Maiolati%20Spontini%20-%20parco%20Colle%20Celeste%20-%20202109121628.jpg?width=800","wd":"https://www.wikidata.org/wiki/Q107719405"},{"id":"wd:Q107719420","name":"Gaspare Spontini's birthplace","lat":43.4743,"lng":13.1141,"kind":"monument","img":"https://commons.wikimedia.org/wiki/Special:FilePath/Maiolati%20Spontini%20-%20casa%20natale%20di%20Gaspare%20Spontini%20-%20202109121629.jpg?width=800","wd":"https://www.wikidata.org/wiki/Q107719420"},{"id":"wd:Q107719628","name":"Cancellata","lat":43.47455,"lng":13.11503,"kind":"church","img":"https://commons.wikimedia.org/wiki/Special:FilePath/Chiesa%20della%20Cancellata%20-%20Maiolati%20Spontini%2002.jpg?width=800","wd":"https://www.wikidata.org/wiki/Q107719628"},{"id":"wd:Q108014335","name":"Torre Civica","lat":42.386944505864,"lng":12.948648247755,"kind":"tower","img":"https://commons.wikimedia.org/wiki/Special:FilePath/Cittaducale%20-%20Torre%20Civica%2002.jpg?width=800","wd":"https://www.wikidata.org/wiki/Q108014335"},{"id":"wd:Q108015306","name":"Torre angioina","lat":42.3883,"lng":12.9521,"kind":"tower","img":"https://commons.wikimedia.org/wiki/Special:FilePath/Torre%20Angioina%20-%20Cittaducale.jpg?width=800","wd":"https://www.wikidata.org/wiki/Q108015306"},{"id":"wd:Q108015347","name":"Santa Maria di Sesto","lat":42.38849,"lng":12.94215,"kind":"church","img":"https://commons.wikimedia.org/wiki/Special:FilePath/Chiesa%20di%20Santa%20Maria%20di%20Sesto%20%28Cittaducale%29%20-%20esterno%2001.jpg?width=800","wd":"https://www.wikidata.org/wiki/Q108015347"},{"id":"wd:Q108028168","name":"San Pietro","lat":42.48912,"lng":13.10238,"kind":"church","img":"https://commons.wikimedia.org/wiki/Special:FilePath/Chiesa%20San%20Pietro%20Laculo.jpg?width=800","wd":"https://www.wikidata.org/wiki/Q108028168"},{"id":"wd:Q108028344","name":"Hortus simplicium","lat":42.402091152025,"lng":12.858001045803,"kind":"park","img":"https://commons.wikimedia.org/wiki/Special:FilePath/Croce%20dell%27Hortus%20Simplicium.jpg?width=800","wd":"https://www.wikidata.org/wiki/Q108028344"},{"id":"wd:Q108151217","name":"Madonna delle Grazie","lat":43.1421249,"lng":12.2052775,"kind":"church","img":"https://commons.wikimedia.org/wiki/Special:FilePath/MagioneUmbriaMadonnaDellaGrazie1.jpg?width=800","desc":"La chiesa di Santa Maria delle Grazie è un luogo di culto cattolico, posto nella parte centrale e storica di Magione della provincia di Perugia e arcidiocesi di Perugia-Città della Pieve la cui edificazione è documentata già dal 1209.\nLa chiesa conserva l'affresco raffigurante Madonna del latte risalente al Trecento.","wiki":"https://it.wikipedia.org/wiki/Chiesa_di_Santa_Maria_delle_Grazie_(Magione)","wd":"https://www.wikidata.org/wiki/Q108151217"},{"id":"wd:Q108494196","name":"Piazza Martiri del 4 aprile","lat":42.512291,"lng":13.135692,"kind":"square","img":"https://commons.wikimedia.org/wiki/Special:FilePath/Piazza%20Martiri%20del%204%20aprile.jpg?width=800","wd":"https://www.wikidata.org/wiki/Q108494196"},{"id":"wd:Q108494749","name":"Cuore Immacolato di Maria e San Francesco","lat":42.45565,"lng":12.97376,"kind":"church","img":"https://commons.wikimedia.org/wiki/Special:FilePath/Austerit%C3%A0.jpg?width=800","wd":"https://www.wikidata.org/wiki/Q108494749"},{"id":"wd:Q108495107","name":"Monumento Centro d'Italia","lat":42.4023,"lng":12.86209,"kind":"monument","img":"https://commons.wikimedia.org/wiki/Special:FilePath/Rieti81.jpg?width=800","wd":"https://www.wikidata.org/wiki/Q108495107"},{"id":"wd:Q108608262","name":"church of San Paterniano","lat":43.401527777778,"lng":13.063611111111,"kind":"church","img":"https://commons.wikimedia.org/wiki/Special:FilePath/Chiesa%20di%20San%20Paterniano%20a%20Domo%20di%20Serra%20San%20Quirico.jpg?width=800","wd":"https://www.wikidata.org/wiki/Q108608262"},{"id":"wd:Q108738105","name":"Chiesa di Santa Maria della Concezione","lat":42.7379,"lng":12.737322,"kind":"church","img":"https://commons.wikimedia.org/wiki/Special:FilePath/Santa%20Maria%20della%20Concezione%20di%20Spoleto.jpg?width=800","desc":"La Chiesa di Santa Maria della Concezione si trova a Spoleto, in un'area un tempo occupata dagli orti del convento agostiniano di San Nicolò. Localmente è anche nota come Santa Maria della piaggia.","wiki":"https://it.wikipedia.org/wiki/Chiesa_di_Santa_Maria_della_Concezione_(Spoleto)","wd":"https://www.wikidata.org/wiki/Q108738105"},{"id":"wd:Q110136536","name":"San Giovanni Battista","lat":42.649693888889,"lng":12.283138888889,"kind":"church","img":"https://commons.wikimedia.org/wiki/Special:FilePath/TenaglieMontecchioSanGiovanniBattista7.jpg?width=800","wd":"https://www.wikidata.org/wiki/Q110136536"},{"id":"wd:Q110449178","name":"Roccacolonnalta Castle","lat":43.06694444,"lng":13.25944444,"kind":"castle","img":"https://commons.wikimedia.org/wiki/Special:FilePath/Roccacolonnalta.jpg?width=800","desc":"Il castello di Roccacolonnalta, o castello di Rocca Colonnalta, è un castello medievale nella frazione Roccacolonnalta a San Ginesio.","wiki":"https://it.wikipedia.org/wiki/Castello_di_Roccacolonnalta","wd":"https://www.wikidata.org/wiki/Q110449178"},{"id":"wd:Q110578058","name":"Archivio storico delle Cartiere Miliani Fabriano","lat":43.33299165766,"lng":12.897707775819,"kind":"museum","img":"https://commons.wikimedia.org/wiki/Special:FilePath/Sala_d%27ingresso_all%27Archivio_storico_delle_Cartiere_Miliani_Fabriano_-_san_dl_SAN_IMG-00469261.jpg?width=800","desc":"L’Archivio storico delle Cartiere Miliani Fabriano è stato tra i primi archivi d’impresa ad essere dichiarato di notevole interesse storico in Italia. Custodisce oltre 500 metri lineari di beni archivistici e librari databili dal 1782, anno di fondazione delle Cartiere Miliani Fabriano.","wiki":"https://it.wikipedia.org/wiki/Archivio_storico_delle_Cartiere_Miliani_Fabriano","wd":"https://www.wikidata.org/wiki/Q110578058"},{"id":"wd:Q111599257","name":"Church of Our Lady of the People, Cittaducale","lat":42.3864455,"lng":12.9491117,"kind":"church","img":"https://commons.wikimedia.org/wiki/Special:FilePath/Cattedrale%20di%20Santa%20Maria%20del%20Popolo%20%28Cittaducale%29%20-%20esterno.jpg?width=800","desc":"La chiesa di Santa Maria del Popolo, già cattedrale, è la parrocchiale di Cittaducale, in provincia e diocesi di Rieti; fa parte della zona pastorale di Valle del Velino, Monti della Laga e Altopiano Leonessano.","wiki":"https://it.wikipedia.org/wiki/Chiesa_di_Santa_Maria_del_Popolo_(Cittaducale)","wd":"https://www.wikidata.org/wiki/Q111599257"},{"id":"wd:Q1116931","name":"Museo delle Arti Monastiche","lat":43.54248,"lng":13.03802,"kind":"museum","img":"https://commons.wikimedia.org/wiki/Special:FilePath/Museo%20Arti%20Monastiche%20Ingresso.jpeg?width=800","desc":"The Museo delle Arti Monastiche e delle tradizioni popolari (Museum of Monastic Arts and Popular Traditions, also known as the Museo Arti Monastiche or MAM) is a museum in Serra de' Conti, Ancona Province, Italy. The museum showcases various art and artifacts from the nearby Monastery of St.","wiki":"https://en.wikipedia.org/wiki/Museo_delle_Arti_Monastiche","wd":"https://www.wikidata.org/wiki/Q1116931"},{"id":"wd:Q111843964","name":"Castello di Genga","lat":43.429354,"lng":12.935404,"kind":"castle","img":"https://commons.wikimedia.org/wiki/Special:FilePath/Genga%20-%20Castello%20di%20Genga%20-%202023-09-30%2013-10-37%20001.jpg?width=800","wd":"https://www.wikidata.org/wiki/Q111843964"},{"id":"wd:Q111844561","name":"museo di arte e storia del territorio","lat":43.42938,"lng":12.93511,"kind":"attraction","img":"https://commons.wikimedia.org/wiki/Special:FilePath/Genga%20-%20Museo%20di%20arte%20e%20storia%20del%20territorio%20-%202025-09-30%2021-47-14%20001.jpg?width=800","wd":"https://www.wikidata.org/wiki/Q111844561"},{"id":"wd:Q111844616","name":"santuario della Madonna di Frasassi","lat":43.40283,"lng":12.95445,"kind":"church","img":"https://commons.wikimedia.org/wiki/Special:FilePath/Santuario%20della%20Madonna%20di%20Frasassi%202.jpg?width=800","wd":"https://www.wikidata.org/wiki/Q111844616"},{"id":"wd:Q111844687","name":"torre medievale","lat":43.40266,"lng":12.97086,"kind":"tower","img":"https://commons.wikimedia.org/wiki/Special:FilePath/Genga%20-%20Torre%20medievale%20-%202025-09-30%2021-15-27%20001.jpg?width=800","wd":"https://www.wikidata.org/wiki/Q111844687"},